{"type":"FeatureCollection", "features": [
{"type":"Feature","geometry":{"type":"Point","coordinates":[121.894618,-33.87025100087461]},"properties":{"ACCURACY":"Medium","COUNTRY":"AUSTRALIA","LAST_UPDAT":"2012-04-18T00:00:00.000Z","MI_STYLE":"Symbol (66,0,6,\"Topography\",256,0)","NAME":"Esperance","SOURCE":"added from Australia 250k Topo - 2005","STATE":"Western Australia"}},
{"type":"Feature","geometry":{"type":"Point","coordinates":[134.188508,-19.651917000599806]},"properties":{"ACCURACY":"Medium","COUNTRY":"AUSTRALIA","LAST_UPDAT":"2011-11-17T00:00:00.000Z","MI_STYLE":"Symbol (66,0,6,\"Topography\",256,0)","NAME":"Tennant Creek","SOURCE":"added from Australia 250k Topo - 2005","STATE":"Northern Territory"}},
{"type":"Feature","geometry":{"type":"Point","coordinates":[150.680718,-31.50598500084244]},"properties":{"ACCURACY":"Medium","COUNTRY":"AUSTRALIA","LAST_UPDAT":"2012-06-05T00:00:00.000Z","MI_STYLE":"Symbol (66,0,6,\"Topography\",256,0)","NAME":"Quirindi","SOURCE":"Australian Bureau of Statistics - 1995","STATE":"New South Wales"}},
{"type":"Feature","geometry":{"type":"Point","coordinates":[150.923096,-31.09960000083633]},"properties":{"ACCURACY":"Medium","COUNTRY":"AUSTRALIA","LAST_UPDAT":"2007-10-19T00:00:00.000Z","MI_STYLE":"Symbol (66,0,6,\"Topography\",256,0)","NAME":"Tamworth","SOURCE":"Australian Bureau of Statistics - 1995","STATE":"New South Wales"}},
{"type":"Feature","geometry":{"type":"Point","coordinates":[150.250989,-30.98402300083455]},"properties":{"ACCURACY":"Medium","COUNTRY":"AUSTRALIA","LAST_UPDAT":"2012-06-05T00:00:00.000Z","MI_STYLE":"Symbol (66,0,6,\"Topography\",256,0)","NAME":"Gunnedah","SOURCE":"Australian Bureau of Statistics - 1995","STATE":"New South Wales"}},
{"type":"Feature","geometry":{"type":"Point","coordinates":[149.281906,-31.275030000838985]},"properties":{"ACCURACY":"Medium","COUNTRY":"AUSTRALIA","LAST_UPDAT":"2010-11-09T00:00:00.000Z","MI_STYLE":"Symbol (66,0,6,\"Topography\",256,0)","NAME":"Coonabarabran","SOURCE":"Australian Bureau of Statistics - 1995","STATE":"New South Wales"}},
{"type":"Feature","geometry":{"type":"Point","coordinates":[148.387044,-30.95300000083408]},"properties":{"ACCURACY":"Medium","COUNTRY":"AUSTRALIA","LAST_UPDAT":"2009-12-16T00:00:00.000Z","MI_STYLE":"Symbol (66,0,6,\"Topography\",256,0)","NAME":"Coonamble","SOURCE":"Australian Bureau of Statistics - 1995","STATE":"New South Wales"}},
{"type":"Feature","geometry":{"type":"Point","coordinates":[149.782394,-30.336250000824375]},"properties":{"ACCURACY":"Medium","COUNTRY":"AUSTRALIA","LAST_UPDAT":"2007-10-19T00:00:00.000Z","MI_STYLE":"Symbol (66,0,6,\"Topography\",256,0)","NAME":"Narrabri","SOURCE":"Australian Bureau of Statistics - 1995","STATE":"New South Wales"}},
{"type":"Feature","geometry":{"type":"Point","coordinates":[148.117134,-30.02429000081932]},"properties":{"ACCURACY":"Medium","COUNTRY":"AUSTRALIA","LAST_UPDAT":"2009-12-16T00:00:00.000Z","MI_STYLE":"Symbol (66,0,6,\"Topography\",256,0)","NAME":"Walgett","SOURCE":"Australian Bureau of Statistics - 1995","STATE":"New South Wales"}},
{"type":"Feature","geometry":{"type":"Point","coordinates":[151.11669899999998,-29.776640000815238]},"properties":{"ACCURACY":"Medium","COUNTRY":"AUSTRALIA","LAST_UPDAT":"2009-12-16T00:00:00.000Z","MI_STYLE":"Symbol (66,0,6,\"Topography\",256,0)","NAME":"Inverell","SOURCE":"Australian Bureau of Statistics - 1995","STATE":"New South Wales"}},
{"type":"Feature","geometry":{"type":"Point","coordinates":[150.8725,-32.05666700085046]},"properties":{"ACCURACY":"Medium","COUNTRY":"AUSTRALIA","LAST_UPDAT":"2007-10-19T00:00:00.000Z","MI_STYLE":"Symbol (66,0,6,\"Topography\",256,0)","NAME":"Scone","SOURCE":"Australian Bureau of Statistics - 1995","STATE":"New South Wales"}},
{"type":"Feature","geometry":{"type":"Point","coordinates":[148.243889,-32.23777800085303]},"properties":{"ACCURACY":"Medium","COUNTRY":"AUSTRALIA","LAST_UPDAT":"2007-10-19T00:00:00.000Z","MI_STYLE":"Symbol (66,0,6,\"Topography\",256,0)","NAME":"Narromine","SOURCE":"Australian Bureau of Statistics - 1995","STATE":"New South Wales"}},
{"type":"Feature","geometry":{"type":"Point","coordinates":[150.893056,-32.27555600085356]},"properties":{"ACCURACY":"Medium","COUNTRY":"AUSTRALIA","LAST_UPDAT":"2007-10-19T00:00:00.000Z","MI_STYLE":"Symbol (66,0,6,\"Topography\",256,0)","NAME":"Muswellbrook","SOURCE":"Australian Bureau of Statistics - 1995","STATE":"New South Wales"}},
{"type":"Feature","geometry":{"type":"Point","coordinates":[149.536944,-32.36500000085481]},"properties":{"ACCURACY":"Medium","COUNTRY":"AUSTRALIA","LAST_UPDAT":"2007-10-19T00:00:00.000Z","MI_STYLE":"Symbol (66,0,6,\"Topography\",256,0)","NAME":"Gulgong","SOURCE":"Australian Bureau of Statistics - 1995","STATE":"New South Wales"}},
{"type":"Feature","geometry":{"type":"Point","coordinates":[149.3975,-32.016111000849875]},"properties":{"ACCURACY":"Medium","COUNTRY":"AUSTRALIA","LAST_UPDAT":"2007-10-19T00:00:00.000Z","MI_STYLE":"Symbol (66,0,6,\"Topography\",256,0)","NAME":"Dunedoo","SOURCE":"Australian Bureau of Statistics - 1995","STATE":"New South Wales"}},
{"type":"Feature","geometry":{"type":"Point","coordinates":[148.605278,-32.25361100085325]},"properties":{"ACCURACY":"Medium","COUNTRY":"AUSTRALIA","LAST_UPDAT":"2007-10-19T00:00:00.000Z","MI_STYLE":"Symbol (66,0,6,\"Topography\",256,0)","NAME":"Dubbo","SOURCE":"Australian Bureau of Statistics - 1995","STATE":"New South Wales"}},
{"type":"Feature","geometry":{"type":"Point","coordinates":[153.432037,-28.037554000784873]},"properties":{"ACCURACY":"Medium","COUNTRY":"AUSTRALIA","LAST_UPDAT":"2009-12-16T00:00:00.000Z","MI_STYLE":"Symbol (66,0,6,\"Topography\",256,0)","NAME":"Gold Coast","SOURCE":"added from 250k maps","STATE":"Queensland"}},
{"type":"Feature","geometry":{"type":"Point","coordinates":[152.92606999999998,-31.465931000841845]},"properties":{"ACCURACY":"Medium","COUNTRY":"AUSTRALIA","LAST_UPDAT":"2010-11-10T00:00:00.000Z","MI_STYLE":"Symbol (66,0,6,\"Topography\",256,0)","NAME":"Port Macquarie","SOURCE":"Australia 250k Topo - 2005","STATE":"New South Wales"}},
{"type":"Feature","geometry":{"type":"Point","coordinates":[153.112762,-30.298056000823763]},"properties":{"ACCURACY":"Medium","COUNTRY":"AUSTRALIA","LAST_UPDAT":"2010-11-10T00:00:00.000Z","MI_STYLE":"Symbol (66,0,6,\"Topography\",256,0)","NAME":"Coffs Harbour","SOURCE":"added from 250k maps","STATE":"New South Wales"}},
{"type":"Feature","geometry":{"type":"Point","coordinates":[114.61133699999999,-28.780363000798204]},"properties":{"ACCURACY":"Medium","COUNTRY":"AUSTRALIA","LAST_UPDAT":"2009-03-25T00:00:00.000Z","MI_STYLE":"Symbol (66,0,6,\"Topography\",256,0)","NAME":"Geraldton","SOURCE":"added from Australia 250K","STATE":"Western Australia"}},
{"type":"Feature","geometry":{"type":"Point","coordinates":[142.996344,-38.61926700092096]},"properties":{"ACCURACY":"Medium","COUNTRY":"AUSTRALIA","LAST_UPDAT":"2008-07-30T00:00:00.000Z","MI_STYLE":"Symbol (66,0,6,\"Topography\",256,0)","NAME":"Port Campbell","SOURCE":"Australian Bureau of Statistics - 1995","STATE":"Victoria"}},
{"type":"Feature","geometry":{"type":"Point","coordinates":[149.841582,-29.462976000809984]},"properties":{"ACCURACY":"Medium","COUNTRY":"AUSTRALIA","LAST_UPDAT":"2009-12-16T00:00:00.000Z","MI_STYLE":"Symbol (66,0,6,\"Topography\",256,0)","NAME":"Moree","SOURCE":"NSW Lands Department, October 2007","STATE":"New South Wales"}},
{"type":"Feature","geometry":{"type":"Point","coordinates":[126.46086199999999,-8.460124000275846]},"properties":{"ACCURACY":"Low","COUNTRY":"INDONESIA","LAST_UPDAT":"2007-10-19T00:00:00.000Z","MI_STYLE":"Symbol (66,0,6,\"Topography\",256,0)","NAME":"Vila Salazar","SOURCE":"Digital Chart of the World - 1992","STATE":""}},
{"type":"Feature","geometry":{"type":"Point","coordinates":[112.029802,-6.870247000225139]},"properties":{"ACCURACY":"Low","COUNTRY":"INDONESIA","LAST_UPDAT":"2007-10-19T00:00:00.000Z","MI_STYLE":"Symbol (66,0,6,\"Topography\",256,0)","NAME":"Tuban","SOURCE":"Digital Chart of the World - 1992","STATE":""}},
{"type":"Feature","geometry":{"type":"Point","coordinates":[111.705086,-8.052637000262923]},"properties":{"ACCURACY":"Low","COUNTRY":"INDONESIA","LAST_UPDAT":"2007-10-19T00:00:00.000Z","MI_STYLE":"Symbol (66,0,6,\"Topography\",256,0)","NAME":"Trenggalek","SOURCE":"Digital Chart of the World - 1992","STATE":""}},
{"type":"Feature","geometry":{"type":"Point","coordinates":[108.14934,-7.16132700023448]},"properties":{"ACCURACY":"Low","COUNTRY":"INDONESIA","LAST_UPDAT":"2007-10-19T00:00:00.000Z","MI_STYLE":"Symbol (66,0,6,\"Topography\",256,0)","NAME":"Tjiawi","SOURCE":"Digital Chart of the World - 1992","STATE":""}},
{"type":"Feature","geometry":{"type":"Point","coordinates":[106.452717,-3.010333000099429]},"properties":{"ACCURACY":"Low","COUNTRY":"INDONESIA","LAST_UPDAT":"2007-10-19T00:00:00.000Z","MI_STYLE":"Symbol (66,0,6,\"Topography\",256,0)","NAME":"Topoali","SOURCE":"Digital Chart of the World - 1992","STATE":""}},
{"type":"Feature","geometry":{"type":"Point","coordinates":[108.132118,-6.761920000221657]},"properties":{"ACCURACY":"Low","COUNTRY":"INDONESIA","LAST_UPDAT":"2007-10-19T00:00:00.000Z","MI_STYLE":"Symbol (66,0,6,\"Topography\",256,0)","NAME":"Tomo","SOURCE":"Digital Chart of the World - 1992","STATE":""}},
{"type":"Feature","geometry":{"type":"Point","coordinates":[108.563497,-6.713036000220084]},"properties":{"ACCURACY":"Low","COUNTRY":"INDONESIA","LAST_UPDAT":"2007-10-19T00:00:00.000Z","MI_STYLE":"Symbol (66,0,6,\"Topography\",256,0)","NAME":"Tjirebon","SOURCE":"Digital Chart of the World - 1992","STATE":""}},
{"type":"Feature","geometry":{"type":"Point","coordinates":[107.566577,-6.497778000213152]},"properties":{"ACCURACY":"Low","COUNTRY":"INDONESIA","LAST_UPDAT":"2007-10-19T00:00:00.000Z","MI_STYLE":"Symbol (66,0,6,\"Topography\",256,0)","NAME":"Tjipeudeuj","SOURCE":"Digital Chart of the World - 1992","STATE":""}},
{"type":"Feature","geometry":{"type":"Point","coordinates":[107.94545600000001,-6.804693000223032]},"properties":{"ACCURACY":"Low","COUNTRY":"INDONESIA","LAST_UPDAT":"2007-10-19T00:00:00.000Z","MI_STYLE":"Symbol (66,0,6,\"Topography\",256,0)","NAME":"Tjimalaka","SOURCE":"Digital Chart of the World - 1992","STATE":""}},
{"type":"Feature","geometry":{"type":"Point","coordinates":[108.35516799999999,-7.720164000252343]},"properties":{"ACCURACY":"Low","COUNTRY":"INDONESIA","LAST_UPDAT":"2007-10-19T00:00:00.000Z","MI_STYLE":"Symbol (66,0,6,\"Topography\",256,0)","NAME":"Tjidjulang","SOURCE":"Digital Chart of the World - 1992","STATE":""}},
{"type":"Feature","geometry":{"type":"Point","coordinates":[107.083811,-6.432505000211049]},"properties":{"ACCURACY":"Low","COUNTRY":"INDONESIA","LAST_UPDAT":"2007-10-19T00:00:00.000Z","MI_STYLE":"Symbol (66,0,6,\"Topography\",256,0)","NAME":"Tjibarusa","SOURCE":"Digital Chart of the World - 1992","STATE":""}},
{"type":"Feature","geometry":{"type":"Point","coordinates":[107.136587,-6.814970000223362]},"properties":{"ACCURACY":"Low","COUNTRY":"INDONESIA","LAST_UPDAT":"2007-10-19T00:00:00.000Z","MI_STYLE":"Symbol (66,0,6,\"Topography\",256,0)","NAME":"Tjiandjur","SOURCE":"Digital Chart of the World - 1992","STATE":""}},
{"type":"Feature","geometry":{"type":"Point","coordinates":[111.588979,-7.146610000234008]},"properties":{"ACCURACY":"Low","COUNTRY":"INDONESIA","LAST_UPDAT":"2007-10-19T00:00:00.000Z","MI_STYLE":"Symbol (66,0,6,\"Topography\",256,0)","NAME":"Tjepu","SOURCE":"Digital Chart of the World - 1992","STATE":""}},
{"type":"Feature","geometry":{"type":"Point","coordinates":[105.258857,-5.44648700017913]},"properties":{"ACCURACY":"Low","COUNTRY":"INDONESIA","LAST_UPDAT":"2007-10-19T00:00:00.000Z","MI_STYLE":"Symbol (66,0,6,\"Topography\",256,0)","NAME":"Telukbetung","SOURCE":"Digital Chart of the World - 1992","STATE":""}},
{"type":"Feature","geometry":{"type":"Point","coordinates":[108.307947,-6.979122000228635]},"properties":{"ACCURACY":"Low","COUNTRY":"INDONESIA","LAST_UPDAT":"2007-10-19T00:00:00.000Z","MI_STYLE":"Symbol (66,0,6,\"Topography\",256,0)","NAME":"Telaga","SOURCE":"Digital Chart of the World - 1992","STATE":""}},
{"type":"Feature","geometry":{"type":"Point","coordinates":[109.136261,-6.861356000224854]},"properties":{"ACCURACY":"Low","COUNTRY":"INDONESIA","LAST_UPDAT":"2007-10-19T00:00:00.000Z","MI_STYLE":"Symbol (66,0,6,\"Topography\",256,0)","NAME":"Tegal","SOURCE":"Digital Chart of the World - 1992","STATE":""}},
{"type":"Feature","geometry":{"type":"Point","coordinates":[103.083355,-3.5877760001184087]},"properties":{"ACCURACY":"Low","COUNTRY":"INDONESIA","LAST_UPDAT":"2007-10-19T00:00:00.000Z","MI_STYLE":"Symbol (66,0,6,\"Topography\",256,0)","NAME":"Tebingtinggi","SOURCE":"Digital Chart of the World - 1992","STATE":""}},
{"type":"Feature","geometry":{"type":"Point","coordinates":[108.213505,-7.325479000239737]},"properties":{"ACCURACY":"Low","COUNTRY":"INDONESIA","LAST_UPDAT":"2007-10-19T00:00:00.000Z","MI_STYLE":"Symbol (66,0,6,\"Topography\",256,0)","NAME":"Tasikmalaja","SOURCE":"Digital Chart of the World - 1992","STATE":""}},
{"type":"Feature","geometry":{"type":"Point","coordinates":[106.631044,-6.18502800020306]},"properties":{"ACCURACY":"Low","COUNTRY":"INDONESIA","LAST_UPDAT":"2007-10-19T00:00:00.000Z","MI_STYLE":"Symbol (66,0,6,\"Topography\",256,0)","NAME":"Tanggerang","SOURCE":"Digital Chart of the World - 1992","STATE":""}},
{"type":"Feature","geometry":{"type":"Point","coordinates":[107.632966,-2.743416000090642]},"properties":{"ACCURACY":"Low","COUNTRY":"INDONESIA","LAST_UPDAT":"2007-10-19T00:00:00.000Z","MI_STYLE":"Symbol (66,0,6,\"Topography\",256,0)","NAME":"Tandjungpandan","SOURCE":"Digital Chart of the World - 1992","STATE":""}},
{"type":"Feature","geometry":{"type":"Point","coordinates":[105.253579,-5.407047000177849]},"properties":{"ACCURACY":"Low","COUNTRY":"INDONESIA","LAST_UPDAT":"2007-10-19T00:00:00.000Z","MI_STYLE":"Symbol (66,0,6,\"Topography\",256,0)","NAME":"Tandjungkarang","SOURCE":"Digital Chart of the World - 1992","STATE":""}},
{"type":"Feature","geometry":{"type":"Point","coordinates":[101.58256,-0.5302990000175472]},"properties":{"ACCURACY":"Low","COUNTRY":"INDONESIA","LAST_UPDAT":"2007-10-19T00:00:00.000Z","MI_STYLE":"Symbol (66,0,6,\"Topography\",256,0)","NAME":"Taluk","SOURCE":"Digital Chart of the World - 1992","STATE":""}},
{"type":"Feature","geometry":{"type":"Point","coordinates":[115.119171,-8.542041000278434]},"properties":{"ACCURACY":"Low","COUNTRY":"INDONESIA","LAST_UPDAT":"2007-10-19T00:00:00.000Z","MI_STYLE":"Symbol (66,0,6,\"Topography\",256,0)","NAME":"Tabanan","SOURCE":"Digital Chart of the World - 1992","STATE":""}},
{"type":"Feature","geometry":{"type":"Point","coordinates":[110.822052,-7.569070000247523]},"properties":{"ACCURACY":"Low","COUNTRY":"INDONESIA","LAST_UPDAT":"2007-10-19T00:00:00.000Z","MI_STYLE":"Symbol (66,0,6,\"Topography\",256,0)","NAME":"Surakarta","SOURCE":"Digital Chart of the World - 1992","STATE":""}},
{"type":"Feature","geometry":{"type":"Point","coordinates":[106.107448,-1.860168000061511]},"properties":{"ACCURACY":"Low","COUNTRY":"INDONESIA","LAST_UPDAT":"2007-10-19T00:00:00.000Z","MI_STYLE":"Symbol (66,0,6,\"Topography\",256,0)","NAME":"Sungailiat","SOURCE":"Digital Chart of the World - 1992","STATE":""}},
{"type":"Feature","geometry":{"type":"Point","coordinates":[104.844145,-2.9917240000988174]},"properties":{"ACCURACY":"Low","COUNTRY":"INDONESIA","LAST_UPDAT":"2007-10-19T00:00:00.000Z","MI_STYLE":"Symbol (66,0,6,\"Topography\",256,0)","NAME":"Sungaigerong","SOURCE":"Digital Chart of the World - 1992","STATE":""}},
{"type":"Feature","geometry":{"type":"Point","coordinates":[113.857536,-7.007180000229536]},"properties":{"ACCURACY":"Low","COUNTRY":"INDONESIA","LAST_UPDAT":"2007-10-19T00:00:00.000Z","MI_STYLE":"Symbol (66,0,6,\"Topography\",256,0)","NAME":"Sumenep","SOURCE":"Digital Chart of the World - 1992","STATE":""}},
{"type":"Feature","geometry":{"type":"Point","coordinates":[114.22086,-7.748501000253246]},"properties":{"ACCURACY":"Low","COUNTRY":"INDONESIA","LAST_UPDAT":"2007-10-19T00:00:00.000Z","MI_STYLE":"Symbol (66,0,6,\"Topography\",256,0)","NAME":"Sumberwaru","SOURCE":"Digital Chart of the World - 1992","STATE":""}},
{"type":"Feature","geometry":{"type":"Point","coordinates":[117.427728,-8.501493000277152]},"properties":{"ACCURACY":"Low","COUNTRY":"INDONESIA","LAST_UPDAT":"2007-10-19T00:00:00.000Z","MI_STYLE":"Symbol (66,0,6,\"Topography\",256,0)","NAME":"Sumbawa Besar","SOURCE":"Digital Chart of the World - 1992","STATE":""}},
{"type":"Feature","geometry":{"type":"Point","coordinates":[107.127421,-7.0971650002324225]},"properties":{"ACCURACY":"Low","COUNTRY":"INDONESIA","LAST_UPDAT":"2007-10-19T00:00:00.000Z","MI_STYLE":"Symbol (66,0,6,\"Topography\",256,0)","NAME":"Sukanegara","SOURCE":"Digital Chart of the World - 1992","STATE":""}},
{"type":"Feature","geometry":{"type":"Point","coordinates":[105.545794,-5.065134000166726]},"properties":{"ACCURACY":"Low","COUNTRY":"INDONESIA","LAST_UPDAT":"2007-10-19T00:00:00.000Z","MI_STYLE":"Symbol (66,0,6,\"Topography\",256,0)","NAME":"Sukadana","SOURCE":"Digital Chart of the World - 1992","STATE":""}},
{"type":"Feature","geometry":{"type":"Point","coordinates":[106.921592,-6.92162600022679]},"properties":{"ACCURACY":"Low","COUNTRY":"INDONESIA","LAST_UPDAT":"2007-10-19T00:00:00.000Z","MI_STYLE":"Symbol (66,0,6,\"Topography\",256,0)","NAME":"Sukabumi","SOURCE":"Digital Chart of the World - 1992","STATE":""}},
{"type":"Feature","geometry":{"type":"Point","coordinates":[113.737816,-6.884414000225594]},"properties":{"ACCURACY":"Low","COUNTRY":"INDONESIA","LAST_UPDAT":"2007-10-19T00:00:00.000Z","MI_STYLE":"Symbol (66,0,6,\"Topography\",256,0)","NAME":"Ambunten-timu","SOURCE":"Digital Chart of the World - 1992","STATE":""}},
{"type":"Feature","geometry":{"type":"Point","coordinates":[128.163611,-3.704448000122238]},"properties":{"ACCURACY":"Low","COUNTRY":"INDONESIA","LAST_UPDAT":"2007-10-19T00:00:00.000Z","MI_STYLE":"Symbol (66,0,6,\"Topography\",256,0)","NAME":"Amboina","SOURCE":"Digital Chart of the World - 1992","STATE":""}},
{"type":"Feature","geometry":{"type":"Point","coordinates":[112.684372,-7.4000000002421205]},"properties":{"ACCURACY":"Low","COUNTRY":"INDONESIA","LAST_UPDAT":"2007-10-19T00:00:00.000Z","MI_STYLE":"Symbol (66,0,6,\"Topography\",256,0)","NAME":"Surabaja","SOURCE":"Digital Chart of the World - 1992","STATE":""}},
{"type":"Feature","geometry":{"type":"Point","coordinates":[152.46805899999998,-31.89869200084819]},"properties":{"ACCURACY":"Medium","COUNTRY":"AUSTRALIA","LAST_UPDAT":"2009-12-16T00:00:00.000Z","MI_STYLE":"Symbol (66,0,6,\"Topography\",256,0)","NAME":"Taree","SOURCE":"Australian Bureau of Statistics - 1995","STATE":"New South Wales"}},
{"type":"Feature","geometry":{"type":"Point","coordinates":[152.836105,-31.07980900083602]},"properties":{"ACCURACY":"Medium","COUNTRY":"AUSTRALIA","LAST_UPDAT":"2009-12-16T00:00:00.000Z","MI_STYLE":"Symbol (66,0,6,\"Topography\",256,0)","NAME":"Kempsey","SOURCE":"Australian Bureau of Statistics - 1995","STATE":"New South Wales"}},
{"type":"Feature","geometry":{"type":"Point","coordinates":[151.671204,-30.518690000827284]},"properties":{"ACCURACY":"Medium","COUNTRY":"AUSTRALIA","LAST_UPDAT":"2009-12-16T00:00:00.000Z","MI_STYLE":"Symbol (66,0,6,\"Topography\",256,0)","NAME":"Armidale","SOURCE":"Australian Bureau of Statistics - 1995","STATE":"New South Wales"}},
{"type":"Feature","geometry":{"type":"Point","coordinates":[153.099826,-30.364773000824833]},"properties":{"ACCURACY":"Medium","COUNTRY":"AUSTRALIA","LAST_UPDAT":"2009-12-16T00:00:00.000Z","MI_STYLE":"Symbol (66,0,6,\"Topography\",256,0)","NAME":"Sawtell","SOURCE":"Australian Bureau of Statistics - 1995","STATE":"New South Wales"}},
{"type":"Feature","geometry":{"type":"Point","coordinates":[134.212006,-32.806469000860865]},"properties":{"ACCURACY":"Medium","COUNTRY":"AUSTRALIA","LAST_UPDAT":"2017-07-24T00:00:00.000Z","MI_STYLE":"Symbol (66,0,6,\"Topography\",256,0)","NAME":"Streaky Bay","SOURCE":"Australian Bureau of Statistics - 1995","STATE":"South Australia"}},
{"type":"Feature","geometry":{"type":"Point","coordinates":[151.736603,-29.742170000814667]},"properties":{"ACCURACY":"Medium","COUNTRY":"AUSTRALIA","LAST_UPDAT":"2009-12-16T00:00:00.000Z","MI_STYLE":"Symbol (66,0,6,\"Topography\",256,0)","NAME":"Glen Innes","SOURCE":"Australian Bureau of Statistics - 1995","STATE":"New South Wales"}},
{"type":"Feature","geometry":{"type":"Point","coordinates":[152.936823,-29.68939400081379]},"properties":{"ACCURACY":"Medium","COUNTRY":"AUSTRALIA","LAST_UPDAT":"2010-11-10T00:00:00.000Z","MI_STYLE":"Symbol (66,0,6,\"Topography\",256,0)","NAME":"Grafton","SOURCE":"Australia 250k Topo - 2005","STATE":"New South Wales"}},
{"type":"Feature","geometry":{"type":"Point","coordinates":[152.020431,-29.054859000803]},"properties":{"ACCURACY":"Medium","COUNTRY":"AUSTRALIA","LAST_UPDAT":"2009-12-16T00:00:00.000Z","MI_STYLE":"Symbol (66,0,6,\"Topography\",256,0)","NAME":"Tenterfield","SOURCE":"Australian Bureau of Statistics - 1995","STATE":"New South Wales"}},
{"type":"Feature","geometry":{"type":"Point","coordinates":[153.042353,-28.86742900079973]},"properties":{"ACCURACY":"Medium","COUNTRY":"AUSTRALIA","LAST_UPDAT":"2009-12-16T00:00:00.000Z","MI_STYLE":"Symbol (66,0,6,\"Topography\",256,0)","NAME":"Casino","SOURCE":"Australian Bureau of Statistics - 1995","STATE":"New South Wales"}},
{"type":"Feature","geometry":{"type":"Point","coordinates":[153.562222,-28.863510000799664]},"properties":{"ACCURACY":"Medium","COUNTRY":"AUSTRALIA","LAST_UPDAT":"2009-12-16T00:00:00.000Z","MI_STYLE":"Symbol (66,0,6,\"Topography\",256,0)","NAME":"Ballina","SOURCE":"Australian Bureau of Statistics - 1995","STATE":"New South Wales"}},
{"type":"Feature","geometry":{"type":"Point","coordinates":[153.290207,-28.814751000798807]},"properties":{"ACCURACY":"Medium","COUNTRY":"AUSTRALIA","LAST_UPDAT":"2009-12-16T00:00:00.000Z","MI_STYLE":"Symbol (66,0,6,\"Topography\",256,0)","NAME":"Lismore","SOURCE":"Australian Bureau of Statistics - 1995","STATE":"New South Wales"}},
{"type":"Feature","geometry":{"type":"Point","coordinates":[150.629593,-26.74696900076044]},"properties":{"ACCURACY":"Medium","COUNTRY":"AUSTRALIA","LAST_UPDAT":"2007-10-19T00:00:00.000Z","MI_STYLE":"Symbol (66,0,6,\"Topography\",256,0)","NAME":"Chinchilla","SOURCE":"Australian Bureau of Statistics - 1995","STATE":"Queensland"}},
{"type":"Feature","geometry":{"type":"Point","coordinates":[150.190733,-26.65848200075871]},"properties":{"ACCURACY":"Medium","COUNTRY":"AUSTRALIA","LAST_UPDAT":"2010-03-18T00:00:00.000Z","MI_STYLE":"Symbol (66,0,6,\"Topography\",256,0)","NAME":"Miles","SOURCE":"digitised from 250k raster","STATE":"Queensland"}},
{"type":"Feature","geometry":{"type":"Point","coordinates":[151.840847,-26.539926000756374]},"properties":{"ACCURACY":"Medium","COUNTRY":"AUSTRALIA","LAST_UPDAT":"2010-03-18T00:00:00.000Z","MI_STYLE":"Symbol (66,0,6,\"Topography\",256,0)","NAME":"Kingaroy","SOURCE":"Australian Bureau of Statistics - 1995","STATE":"Queensland"}},
{"type":"Feature","geometry":{"type":"Point","coordinates":[152.6698,-26.190701000749428]},"properties":{"ACCURACY":"Medium","COUNTRY":"AUSTRALIA","LAST_UPDAT":"2010-03-19T00:00:00.000Z","MI_STYLE":"Symbol (66,0,6,\"Topography\",256,0)","NAME":"Gympie","SOURCE":"Australian Bureau of Statistics - 1995","STATE":"Queensland"}},
{"type":"Feature","geometry":{"type":"Point","coordinates":[149.963988,-26.12161800074804]},"properties":{"ACCURACY":"Medium","COUNTRY":"AUSTRALIA","LAST_UPDAT":"2010-03-18T00:00:00.000Z","MI_STYLE":"Symbol (66,0,6,\"Topography\",256,0)","NAME":"Wandoan","SOURCE":"digitised from 250k raster","STATE":"Queensland"}},
{"type":"Feature","geometry":{"type":"Point","coordinates":[148.56495,-25.84373700074241]},"properties":{"ACCURACY":"Medium","COUNTRY":"AUSTRALIA","LAST_UPDAT":"2010-03-18T00:00:00.000Z","MI_STYLE":"Symbol (66,0,6,\"Topography\",256,0)","NAME":"Injune","SOURCE":"digitised from 250k raster","STATE":"Queensland"}},
{"type":"Feature","geometry":{"type":"Point","coordinates":[149.799928,-25.639968000738243]},"properties":{"ACCURACY":"Medium","COUNTRY":"AUSTRALIA","LAST_UPDAT":"2010-03-18T00:00:00.000Z","MI_STYLE":"Symbol (66,0,6,\"Topography\",256,0)","NAME":"Taroom","SOURCE":"Australian Bureau of Statistics - 1995","STATE":"Queensland"}},
{"type":"Feature","geometry":{"type":"Point","coordinates":[151.934897,-28.658663000796057]},"properties":{"ACCURACY":"Medium","COUNTRY":"AUSTRALIA","LAST_UPDAT":"2010-03-19T00:00:00.000Z","MI_STYLE":"Symbol (66,0,6,\"Topography\",256,0)","NAME":"Stanthorpe","SOURCE":"Australian Bureau of Statistics - 1995","STATE":"Queensland"}},
{"type":"Feature","geometry":{"type":"Point","coordinates":[150.305926,-28.544382000794027]},"properties":{"ACCURACY":"Medium","COUNTRY":"AUSTRALIA","LAST_UPDAT":"2010-03-19T00:00:00.000Z","MI_STYLE":"Symbol (66,0,6,\"Topography\",256,0)","NAME":"Goondiwindi","SOURCE":"digitised from 250k raster","STATE":"Queensland"}},
{"type":"Feature","geometry":{"type":"Point","coordinates":[152.035599,-28.219351000788183]},"properties":{"ACCURACY":"Medium","COUNTRY":"AUSTRALIA","LAST_UPDAT":"2009-12-16T00:00:00.000Z","MI_STYLE":"Symbol (66,0,6,\"Topography\",256,0)","NAME":"Warwick","SOURCE":"Australian Bureau of Statistics - 1995","STATE":"Queensland"}},
{"type":"Feature","geometry":{"type":"Point","coordinates":[148.622742,-24.463000000713425]},"properties":{"ACCURACY":"Medium","COUNTRY":"AUSTRALIA","LAST_UPDAT":"2010-03-18T00:00:00.000Z","MI_STYLE":"Symbol (66,0,6,\"Topography\",256,0)","NAME":"Rolleston","SOURCE":"digitised from 250k raster","STATE":"Queensland"}},
{"type":"Feature","geometry":{"type":"Point","coordinates":[148.88263,-23.580187000694007]},"properties":{"ACCURACY":"Medium","COUNTRY":"AUSTRALIA","LAST_UPDAT":"2010-03-19T00:00:00.000Z","MI_STYLE":"Symbol (66,0,6,\"Topography\",256,0)","NAME":"Blackwater","SOURCE":"Australian Bureau of Statistics - 1995","STATE":"Queensland"}},
{"type":"Feature","geometry":{"type":"Point","coordinates":[145.048611,-38.42972200091959]},"properties":{"ACCURACY":"Medium","COUNTRY":"AUSTRALIA","LAST_UPDAT":"2007-10-19T00:00:00.000Z","MI_STYLE":"Symbol (66,0,6,\"Topography\",256,0)","NAME":"Shoreham","SOURCE":"Australian Bureau of Statistics - 1995","STATE":"Victoria"}},
{"type":"Feature","geometry":{"type":"Point","coordinates":[145.404444,-36.3788890009022]},"properties":{"ACCURACY":"Medium","COUNTRY":"AUSTRALIA","LAST_UPDAT":"2007-10-19T00:00:00.000Z","MI_STYLE":"Symbol (66,0,6,\"Topography\",256,0)","NAME":"Shepparton","SOURCE":"Australian Bureau of Statistics - 1995","STATE":"Victoria"}},
{"type":"Feature","geometry":{"type":"Point","coordinates":[145.139444,-37.02916700090822]},"properties":{"ACCURACY":"Medium","COUNTRY":"AUSTRALIA","LAST_UPDAT":"2007-10-19T00:00:00.000Z","MI_STYLE":"Symbol (66,0,6,\"Topography\",256,0)","NAME":"Seymour","SOURCE":"Australian Bureau of Statistics - 1995","STATE":"Victoria"}},
{"type":"Feature","geometry":{"type":"Point","coordinates":[145.424167,-37.77861100091457]},"properties":{"ACCURACY":"Medium","COUNTRY":"AUSTRALIA","LAST_UPDAT":"2007-10-19T00:00:00.000Z","MI_STYLE":"Symbol (66,0,6,\"Topography\",256,0)","NAME":"Seville","SOURCE":"Australian Bureau of Statistics - 1995","STATE":"Victoria"}},
{"type":"Feature","geometry":{"type":"Point","coordinates":[142.860556,-35.501389000893326]},"properties":{"ACCURACY":"Medium","COUNTRY":"AUSTRALIA","LAST_UPDAT":"2007-10-19T00:00:00.000Z","MI_STYLE":"Symbol (66,0,6,\"Topography\",256,0)","NAME":"Sea Lake","SOURCE":"Australian Bureau of Statistics - 1995","STATE":"Victoria"}},
{"type":"Feature","geometry":{"type":"Point","coordinates":[147.504167,-41.16250000093542]},"properties":{"ACCURACY":"Medium","COUNTRY":"AUSTRALIA","LAST_UPDAT":"2007-10-19T00:00:00.000Z","MI_STYLE":"Symbol (66,0,6,\"Topography\",256,0)","NAME":"Scottsdale","SOURCE":"Australian Bureau of Statistics - 1995","STATE":"Tasmania"}},
{"type":"Feature","geometry":{"type":"Point","coordinates":[145.21,-41.50861100093681]},"properties":{"ACCURACY":"Medium","COUNTRY":"AUSTRALIA","LAST_UPDAT":"2007-10-19T00:00:00.000Z","MI_STYLE":"Symbol (66,0,6,\"Topography\",256,0)","NAME":"Savage River","SOURCE":"Australian Bureau of Statistics - 1995","STATE":"Tasmania"}},
{"type":"Feature","geometry":{"type":"Point","coordinates":[147.0675,-38.11277800091721]},"properties":{"ACCURACY":"Medium","COUNTRY":"AUSTRALIA","LAST_UPDAT":"2007-10-19T00:00:00.000Z","MI_STYLE":"Symbol (66,0,6,\"Topography\",256,0)","NAME":"Sale","SOURCE":"Australian Bureau of Statistics - 1995","STATE":"Victoria"}},
{"type":"Feature","geometry":{"type":"Point","coordinates":[146.4575,-36.06194400089908]},"properties":{"ACCURACY":"Medium","COUNTRY":"AUSTRALIA","LAST_UPDAT":"2007-10-19T00:00:00.000Z","MI_STYLE":"Symbol (66,0,6,\"Topography\",256,0)","NAME":"Rutherglen","SOURCE":"Australian Bureau of Statistics - 1995","STATE":"Victoria"}},
{"type":"Feature","geometry":{"type":"Point","coordinates":[145.014722,-36.588333000904186]},"properties":{"ACCURACY":"Medium","COUNTRY":"AUSTRALIA","LAST_UPDAT":"2007-10-19T00:00:00.000Z","MI_STYLE":"Symbol (66,0,6,\"Topography\",256,0)","NAME":"Rushworth","SOURCE":"Australian Bureau of Statistics - 1995","STATE":"Victoria"}},
{"type":"Feature","geometry":{"type":"Point","coordinates":[146.778611,-38.15694400091754]},"properties":{"ACCURACY":"Medium","COUNTRY":"AUSTRALIA","LAST_UPDAT":"2007-10-19T00:00:00.000Z","MI_STYLE":"Symbol (66,0,6,\"Topography\",256,0)","NAME":"Rosedale","SOURCE":"Australian Bureau of Statistics - 1995","STATE":"Victoria"}},
{"type":"Feature","geometry":{"type":"Point","coordinates":[145.536667,-41.77861100093781]},"properties":{"ACCURACY":"Medium","COUNTRY":"AUSTRALIA","LAST_UPDAT":"2007-10-19T00:00:00.000Z","MI_STYLE":"Symbol (66,0,6,\"Topography\",256,0)","NAME":"Roseberry","SOURCE":"Australian Bureau of Statistics - 1995","STATE":"Tasmania"}},
{"type":"Feature","geometry":{"type":"Point","coordinates":[144.744444,-37.351944000911026]},"properties":{"ACCURACY":"Medium","COUNTRY":"AUSTRALIA","LAST_UPDAT":"2007-10-19T00:00:00.000Z","MI_STYLE":"Symbol (66,0,6,\"Topography\",256,0)","NAME":"Romsey","SOURCE":"Australian Bureau of Statistics - 1995","STATE":"Victoria"}},
{"type":"Feature","geometry":{"type":"Point","coordinates":[115.728611,-32.286944000853715]},"properties":{"ACCURACY":"Medium","COUNTRY":"AUSTRALIA","LAST_UPDAT":"2007-10-19T00:00:00.000Z","MI_STYLE":"Symbol (66,0,6,\"Topography\",256,0)","NAME":"Rockingham","SOURCE":"Australian Bureau of Statistics - 1995","STATE":"Western Australia"}},
{"type":"Feature","geometry":{"type":"Point","coordinates":[150.51250000000002,-23.37583300068942]},"properties":{"ACCURACY":"Medium","COUNTRY":"AUSTRALIA","LAST_UPDAT":"2007-10-19T00:00:00.000Z","MI_STYLE":"Symbol (66,0,6,\"Topography\",256,0)","NAME":"Rockhampton","SOURCE":"Australian Bureau of Statistics - 1995","STATE":"Queensland"}},
{"type":"Feature","geometry":{"type":"Point","coordinates":[144.694167,-36.36361100090205]},"properties":{"ACCURACY":"Medium","COUNTRY":"AUSTRALIA","LAST_UPDAT":"2007-10-19T00:00:00.000Z","MI_STYLE":"Symbol (66,0,6,\"Topography\",256,0)","NAME":"Rochester","SOURCE":"Australian Bureau of Statistics - 1995","STATE":"Victoria"}},
{"type":"Feature","geometry":{"type":"Point","coordinates":[142.784167,-34.58666700088318]},"properties":{"ACCURACY":"Medium","COUNTRY":"AUSTRALIA","LAST_UPDAT":"2007-10-19T00:00:00.000Z","MI_STYLE":"Symbol (66,0,6,\"Topography\",256,0)","NAME":"Robinvale","SOURCE":"Australian Bureau of Statistics - 1995","STATE":"Victoria"}},
{"type":"Feature","geometry":{"type":"Point","coordinates":[147.43361099999998,-42.74055600094068]},"properties":{"ACCURACY":"Medium","COUNTRY":"AUSTRALIA","LAST_UPDAT":"2007-10-19T00:00:00.000Z","MI_STYLE":"Symbol (66,0,6,\"Topography\",256,0)","NAME":"Richmond","SOURCE":"Australian Bureau of Statistics - 1995","STATE":"Tasmania"}},
{"type":"Feature","geometry":{"type":"Point","coordinates":[150.74944399999998,-33.60611100087131]},"properties":{"ACCURACY":"Medium","COUNTRY":"AUSTRALIA","LAST_UPDAT":"2007-10-19T00:00:00.000Z","MI_STYLE":"Symbol (66,0,6,\"Topography\",256,0)","NAME":"Richmond","SOURCE":"Australian Bureau of Statistics - 1995","STATE":"New South Wales"}},
{"type":"Feature","geometry":{"type":"Point","coordinates":[145.289444,-38.47138900091989]},"properties":{"ACCURACY":"Medium","COUNTRY":"AUSTRALIA","LAST_UPDAT":"2007-10-19T00:00:00.000Z","MI_STYLE":"Symbol (66,0,6,\"Topography\",256,0)","NAME":"Rhyll","SOURCE":"Australian Bureau of Statistics - 1995","STATE":"Victoria"}},
{"type":"Feature","geometry":{"type":"Point","coordinates":[142.187778,-34.31166700087996]},"properties":{"ACCURACY":"Medium","COUNTRY":"AUSTRALIA","LAST_UPDAT":"2007-10-19T00:00:00.000Z","MI_STYLE":"Symbol (66,0,6,\"Topography\",256,0)","NAME":"Red Cliffs","SOURCE":"Australian Bureau of Statistics - 1995","STATE":"Victoria"}},
{"type":"Feature","geometry":{"type":"Point","coordinates":[145.546667,-42.086111000938836]},"properties":{"ACCURACY":"Medium","COUNTRY":"AUSTRALIA","LAST_UPDAT":"2007-10-19T00:00:00.000Z","MI_STYLE":"Symbol (66,0,6,\"Topography\",256,0)","NAME":"Queenstown","SOURCE":"Australian Bureau of Statistics - 1995","STATE":"Tasmania"}},
{"type":"Feature","geometry":{"type":"Point","coordinates":[149.22888899999998,-35.35277800089174]},"properties":{"ACCURACY":"Medium","COUNTRY":"AUSTRALIA","LAST_UPDAT":"2007-10-19T00:00:00.000Z","MI_STYLE":"Symbol (66,0,6,\"Topography\",256,0)","NAME":"Queanbeyan","SOURCE":"Australian Bureau of Statistics - 1995","STATE":"New South Wales"}},
{"type":"Feature","geometry":{"type":"Point","coordinates":[145.036944,-37.00138900090796]},"properties":{"ACCURACY":"Medium","COUNTRY":"AUSTRALIA","LAST_UPDAT":"2007-10-19T00:00:00.000Z","MI_STYLE":"Symbol (66,0,6,\"Topography\",256,0)","NAME":"Puckapunyal","SOURCE":"Australian Bureau of Statistics - 1995","STATE":"Victoria"}},
{"type":"Feature","geometry":{"type":"Point","coordinates":[148.580556,-20.40361100061877]},"properties":{"ACCURACY":"Medium","COUNTRY":"AUSTRALIA","LAST_UPDAT":"2007-10-19T00:00:00.000Z","MI_STYLE":"Symbol (66,0,6,\"Topography\",256,0)","NAME":"Proserpine","SOURCE":"Australian Bureau of Statistics - 1995","STATE":"Queensland"}},
{"type":"Feature","geometry":{"type":"Point","coordinates":[141.604167,-38.346111000918974]},"properties":{"ACCURACY":"Medium","COUNTRY":"AUSTRALIA","LAST_UPDAT":"2007-10-19T00:00:00.000Z","MI_STYLE":"Symbol (66,0,6,\"Topography\",256,0)","NAME":"Portland","SOURCE":"Australian Bureau of Statistics - 1995","STATE":"Victoria"}},
{"type":"Feature","geometry":{"type":"Point","coordinates":[149.986667,-33.34888900086803]},"properties":{"ACCURACY":"Medium","COUNTRY":"AUSTRALIA","LAST_UPDAT":"2007-10-19T00:00:00.000Z","MI_STYLE":"Symbol (66,0,6,\"Topography\",256,0)","NAME":"Portland","SOURCE":"Australian Bureau of Statistics - 1995","STATE":"New South Wales"}},
{"type":"Feature","geometry":{"type":"Point","coordinates":[137.994722,-33.19194400086599]},"properties":{"ACCURACY":"Medium","COUNTRY":"AUSTRALIA","LAST_UPDAT":"2007-10-19T00:00:00.000Z","MI_STYLE":"Symbol (66,0,6,\"Topography\",256,0)","NAME":"Port Pirie","SOURCE":"Australian Bureau of Statistics - 1995","STATE":"South Australia"}},
{"type":"Feature","geometry":{"type":"Point","coordinates":[135.859444,-34.7275000008848]},"properties":{"ACCURACY":"Medium","COUNTRY":"AUSTRALIA","LAST_UPDAT":"2007-10-19T00:00:00.000Z","MI_STYLE":"Symbol (66,0,6,\"Topography\",256,0)","NAME":"Port Lincoln","SOURCE":"Australian Bureau of Statistics - 1995","STATE":"South Australia"}},
{"type":"Feature","geometry":{"type":"Point","coordinates":[150.863333,-34.48750000088204]},"properties":{"ACCURACY":"Medium","COUNTRY":"AUSTRALIA","LAST_UPDAT":"2007-10-19T00:00:00.000Z","MI_STYLE":"Symbol (66,0,6,\"Topography\",256,0)","NAME":"Port Kembla","SOURCE":"Australian Bureau of Statistics - 1995","STATE":"New South Wales"}},
{"type":"Feature","geometry":{"type":"Point","coordinates":[118.605278,-20.310833000616455]},"properties":{"ACCURACY":"Medium","COUNTRY":"AUSTRALIA","LAST_UPDAT":"2007-10-19T00:00:00.000Z","MI_STYLE":"Symbol (66,0,6,\"Topography\",256,0)","NAME":"Port Hedland","SOURCE":"Australian Bureau of Statistics - 1995","STATE":"Western Australia"}},
{"type":"Feature","geometry":{"type":"Point","coordinates":[142.236667,-38.380833000919225]},"properties":{"ACCURACY":"Medium","COUNTRY":"AUSTRALIA","LAST_UPDAT":"2007-10-19T00:00:00.000Z","MI_STYLE":"Symbol (66,0,6,\"Topography\",256,0)","NAME":"Port Fairy","SOURCE":"Australian Bureau of Statistics - 1995","STATE":"Victoria"}},
{"type":"Feature","geometry":{"type":"Point","coordinates":[137.771389,-32.497222000856645]},"properties":{"ACCURACY":"Medium","COUNTRY":"AUSTRALIA","LAST_UPDAT":"2007-10-19T00:00:00.000Z","MI_STYLE":"Symbol (66,0,6,\"Topography\",256,0)","NAME":"Port Augusta","SOURCE":"Australian Bureau of Statistics - 1995","STATE":"South Australia"}},
{"type":"Feature","geometry":{"type":"Point","coordinates":[115.87750000000001,-32.639444000858596]},"properties":{"ACCURACY":"Medium","COUNTRY":"AUSTRALIA","LAST_UPDAT":"2007-10-19T00:00:00.000Z","MI_STYLE":"Symbol (66,0,6,\"Topography\",256,0)","NAME":"Pinjarra","SOURCE":"Australian Bureau of Statistics - 1995","STATE":"Western Australia"}},
{"type":"Feature","geometry":{"type":"Point","coordinates":[117.086389,-32.533056000857144]},"properties":{"ACCURACY":"Medium","COUNTRY":"AUSTRALIA","LAST_UPDAT":"2007-10-19T00:00:00.000Z","MI_STYLE":"Symbol (66,0,6,\"Topography\",256,0)","NAME":"Pingelly","SOURCE":"Australian Bureau of Statistics - 1995","STATE":"Western Australia"}},
{"type":"Feature","geometry":{"type":"Point","coordinates":[150.606944,-34.17500000087833]},"properties":{"ACCURACY":"Medium","COUNTRY":"AUSTRALIA","LAST_UPDAT":"2007-10-19T00:00:00.000Z","MI_STYLE":"Symbol (66,0,6,\"Topography\",256,0)","NAME":"Picton","SOURCE":"Australian Bureau of Statistics - 1995","STATE":"New South Wales"}},
{"type":"Feature","geometry":{"type":"Point","coordinates":[142.287778,-37.87444400091534]},"properties":{"ACCURACY":"Medium","COUNTRY":"AUSTRALIA","LAST_UPDAT":"2007-10-19T00:00:00.000Z","MI_STYLE":"Symbol (66,0,6,\"Topography\",256,0)","NAME":"Penshurst","SOURCE":"Australian Bureau of Statistics - 1995","STATE":"Victoria"}},
{"type":"Feature","geometry":{"type":"Point","coordinates":[146.061389,-41.11388900093521]},"properties":{"ACCURACY":"Medium","COUNTRY":"AUSTRALIA","LAST_UPDAT":"2007-10-19T00:00:00.000Z","MI_STYLE":"Symbol (66,0,6,\"Topography\",256,0)","NAME":"Penguin","SOURCE":"Australian Bureau of Statistics - 1995","STATE":"Tasmania"}},
{"type":"Feature","geometry":{"type":"Point","coordinates":[115.762222,-32.428333000855694]},"properties":{"ACCURACY":"Medium","COUNTRY":"AUSTRALIA","LAST_UPDAT":"2007-10-19T00:00:00.000Z","MI_STYLE":"Symbol (66,0,6,\"Topography\",256,0)","NAME":"Peelhurst","SOURCE":"Australian Bureau of Statistics - 1995","STATE":"Western Australia"}},
{"type":"Feature","geometry":{"type":"Point","coordinates":[148.176944,-33.13694400086526]},"properties":{"ACCURACY":"Medium","COUNTRY":"AUSTRALIA","LAST_UPDAT":"2007-10-19T00:00:00.000Z","MI_STYLE":"Symbol (66,0,6,\"Topography\",256,0)","NAME":"Parkes","SOURCE":"Australian Bureau of Statistics - 1995","STATE":"New South Wales"}},
{"type":"Feature","geometry":{"type":"Point","coordinates":[149.8725,-36.93166700090734]},"properties":{"ACCURACY":"Medium","COUNTRY":"AUSTRALIA","LAST_UPDAT":"2007-10-19T00:00:00.000Z","MI_STYLE":"Symbol (66,0,6,\"Topography\",256,0)","NAME":"Pambula","SOURCE":"Australian Bureau of Statistics - 1995","STATE":"New South Wales"}},
{"type":"Feature","geometry":{"type":"Point","coordinates":[142.316944,-35.06777800088863]},"properties":{"ACCURACY":"Medium","COUNTRY":"AUSTRALIA","LAST_UPDAT":"2007-10-19T00:00:00.000Z","MI_STYLE":"Symbol (66,0,6,\"Topography\",256,0)","NAME":"Ouyen","SOURCE":"Australian Bureau of Statistics - 1995","STATE":"Victoria"}},
{"type":"Feature","geometry":{"type":"Point","coordinates":[148.460556,-37.70277800091396]},"properties":{"ACCURACY":"Medium","COUNTRY":"AUSTRALIA","LAST_UPDAT":"2007-10-19T00:00:00.000Z","MI_STYLE":"Symbol (66,0,6,\"Topography\",256,0)","NAME":"Orbost","SOURCE":"Australian Bureau of Statistics - 1995","STATE":"Victoria"}},
{"type":"Feature","geometry":{"type":"Point","coordinates":[149.105556,-33.28694400086722]},"properties":{"ACCURACY":"Medium","COUNTRY":"AUSTRALIA","LAST_UPDAT":"2007-10-19T00:00:00.000Z","MI_STYLE":"Symbol (66,0,6,\"Topography\",256,0)","NAME":"Orange","SOURCE":"Australian Bureau of Statistics - 1995","STATE":"New South Wales"}},
{"type":"Feature","geometry":{"type":"Point","coordinates":[147.599444,-37.10166700090886]},"properties":{"ACCURACY":"Medium","COUNTRY":"AUSTRALIA","LAST_UPDAT":"2007-10-19T00:00:00.000Z","MI_STYLE":"Symbol (66,0,6,\"Topography\",256,0)","NAME":"Omeo","SOURCE":"Australian Bureau of Statistics - 1995","STATE":"Victoria"}},
{"type":"Feature","geometry":{"type":"Point","coordinates":[149.855833,-33.71000000087262]},"properties":{"ACCURACY":"Medium","COUNTRY":"AUSTRALIA","LAST_UPDAT":"2007-10-19T00:00:00.000Z","MI_STYLE":"Symbol (66,0,6,\"Topography\",256,0)","NAME":"Oberon","SOURCE":"Australian Bureau of Statistics - 1995","STATE":"New South Wales"}},
{"type":"Feature","geometry":{"type":"Point","coordinates":[147.360833,-42.304722000939506]},"properties":{"ACCURACY":"Medium","COUNTRY":"AUSTRALIA","LAST_UPDAT":"2007-10-19T00:00:00.000Z","MI_STYLE":"Symbol (66,0,6,\"Topography\",256,0)","NAME":"Oatlands","SOURCE":"Australian Bureau of Statistics - 1995","STATE":"Tasmania"}},
{"type":"Feature","geometry":{"type":"Point","coordinates":[147.18277799999998,-31.562222000843274]},"properties":{"ACCURACY":"Medium","COUNTRY":"AUSTRALIA","LAST_UPDAT":"2007-10-19T00:00:00.000Z","MI_STYLE":"Symbol (66,0,6,\"Topography\",256,0)","NAME":"Nyngan","SOURCE":"Australian Bureau of Statistics - 1995","STATE":"New South Wales"}},
{"type":"Feature","geometry":{"type":"Point","coordinates":[143.343611,-35.190000000889974]},"properties":{"ACCURACY":"Medium","COUNTRY":"AUSTRALIA","LAST_UPDAT":"2007-10-19T00:00:00.000Z","MI_STYLE":"Symbol (66,0,6,\"Topography\",256,0)","NAME":"Nyah West","SOURCE":"Australian Bureau of Statistics - 1995","STATE":"Victoria"}},
{"type":"Feature","geometry":{"type":"Point","coordinates":[145.441111,-36.09666700089943]},"properties":{"ACCURACY":"Medium","COUNTRY":"AUSTRALIA","LAST_UPDAT":"2007-10-19T00:00:00.000Z","MI_STYLE":"Symbol (66,0,6,\"Topography\",256,0)","NAME":"Numurkah","SOURCE":"Australian Bureau of Statistics - 1995","STATE":"Victoria"}},
{"type":"Feature","geometry":{"type":"Point","coordinates":[116.666667,-31.65750000084468]},"properties":{"ACCURACY":"Medium","COUNTRY":"AUSTRALIA","LAST_UPDAT":"2007-10-19T00:00:00.000Z","MI_STYLE":"Symbol (66,0,6,\"Topography\",256,0)","NAME":"Northam","SOURCE":"Australian Bureau of Statistics - 1995","STATE":"Western Australia"}},
{"type":"Feature","geometry":{"type":"Point","coordinates":[121.778333,-32.200833000852505]},"properties":{"ACCURACY":"Medium","COUNTRY":"AUSTRALIA","LAST_UPDAT":"2007-10-19T00:00:00.000Z","MI_STYLE":"Symbol (66,0,6,\"Topography\",256,0)","NAME":"Norseman","SOURCE":"Australian Bureau of Statistics - 1995","STATE":"Western Australia"}},
{"type":"Feature","geometry":{"type":"Point","coordinates":[141.646667,-36.33166700090173]},"properties":{"ACCURACY":"Medium","COUNTRY":"AUSTRALIA","LAST_UPDAT":"2007-10-19T00:00:00.000Z","MI_STYLE":"Symbol (66,0,6,\"Topography\",256,0)","NAME":"Nhill","SOURCE":"Australian Bureau of Statistics - 1995","STATE":"Victoria"}},
{"type":"Feature","geometry":{"type":"Point","coordinates":[119.729167,-23.355833000688968]},"properties":{"ACCURACY":"Medium","COUNTRY":"AUSTRALIA","LAST_UPDAT":"2007-10-19T00:00:00.000Z","MI_STYLE":"Symbol (66,0,6,\"Topography\",256,0)","NAME":"Newman","SOURCE":"Australian Bureau of Statistics - 1995","STATE":"Western Australia"}},
{"type":"Feature","geometry":{"type":"Point","coordinates":[151.696052,-32.96278700086296]},"properties":{"ACCURACY":"Medium","COUNTRY":"AUSTRALIA","LAST_UPDAT":"2010-11-11T00:00:00.000Z","MI_STYLE":"Symbol (66,0,6,\"Topography\",256,0)","NAME":"Newcastle","SOURCE":"Australia 250k Topo - 2005","STATE":"New South Wales"}},
{"type":"Feature","geometry":{"type":"Point","coordinates":[147.053056,-42.78472200094078]},"properties":{"ACCURACY":"Medium","COUNTRY":"AUSTRALIA","LAST_UPDAT":"2007-10-19T00:00:00.000Z","MI_STYLE":"Symbol (66,0,6,\"Topography\",256,0)","NAME":"New Norfolk","SOURCE":"Australian Bureau of Statistics - 1995","STATE":"Tasmania"}},
{"type":"Feature","geometry":{"type":"Point","coordinates":[145.209444,-36.05444400089901]},"properties":{"ACCURACY":"Medium","COUNTRY":"AUSTRALIA","LAST_UPDAT":"2007-10-19T00:00:00.000Z","MI_STYLE":"Symbol (66,0,6,\"Topography\",256,0)","NAME":"Nathalia","SOURCE":"Australian Bureau of Statistics - 1995","STATE":"Victoria"}},
{"type":"Feature","geometry":{"type":"Point","coordinates":[117.179444,-32.93861100086264]},"properties":{"ACCURACY":"Medium","COUNTRY":"AUSTRALIA","LAST_UPDAT":"2007-10-19T00:00:00.000Z","MI_STYLE":"Symbol (66,0,6,\"Topography\",256,0)","NAME":"Narrogin","SOURCE":"Australian Bureau of Statistics - 1995","STATE":"Western Australia"}},
{"type":"Feature","geometry":{"type":"Point","coordinates":[146.544722,-34.754444000885115]},"properties":{"ACCURACY":"Medium","COUNTRY":"AUSTRALIA","LAST_UPDAT":"2007-10-19T00:00:00.000Z","MI_STYLE":"Symbol (66,0,6,\"Topography\",256,0)","NAME":"Narrandera","SOURCE":"Australian Bureau of Statistics - 1995","STATE":"New South Wales"}},
{"type":"Feature","geometry":{"type":"Point","coordinates":[150.735833,-34.04361100087674]},"properties":{"ACCURACY":"Medium","COUNTRY":"AUSTRALIA","LAST_UPDAT":"2007-10-19T00:00:00.000Z","MI_STYLE":"Symbol (66,0,6,\"Topography\",256,0)","NAME":"Narellen","SOURCE":"Australian Bureau of Statistics - 1995","STATE":"New South Wales"}},
{"type":"Feature","geometry":{"type":"Point","coordinates":[140.740833,-36.96361100090763]},"properties":{"ACCURACY":"Medium","COUNTRY":"AUSTRALIA","LAST_UPDAT":"2007-10-19T00:00:00.000Z","MI_STYLE":"Symbol (66,0,6,\"Topography\",256,0)","NAME":"Naracoorte","SOURCE":"Australian Bureau of Statistics - 1995","STATE":"South Australia"}},
{"type":"Feature","geometry":{"type":"Point","coordinates":[145.153333,-36.78916700090605]},"properties":{"ACCURACY":"Medium","COUNTRY":"AUSTRALIA","LAST_UPDAT":"2007-10-19T00:00:00.000Z","MI_STYLE":"Symbol (66,0,6,\"Topography\",256,0)","NAME":"Nagambie","SOURCE":"Australian Bureau of Statistics - 1995","STATE":"Victoria"}},
{"type":"Feature","geometry":{"type":"Point","coordinates":[146.72472199999999,-36.56027800090392]},"properties":{"ACCURACY":"Medium","COUNTRY":"AUSTRALIA","LAST_UPDAT":"2007-10-19T00:00:00.000Z","MI_STYLE":"Symbol (66,0,6,\"Topography\",256,0)","NAME":"Myrtleford","SOURCE":"Australian Bureau of Statistics - 1995","STATE":"Victoria"}},
{"type":"Feature","geometry":{"type":"Point","coordinates":[142.463333,-36.62083300090449]},"properties":{"ACCURACY":"Medium","COUNTRY":"AUSTRALIA","LAST_UPDAT":"2007-10-19T00:00:00.000Z","MI_STYLE":"Symbol (66,0,6,\"Topography\",256,0)","NAME":"Murtoa","SOURCE":"Australian Bureau of Statistics - 1995","STATE":"Victoria"}},
{"type":"Feature","geometry":{"type":"Point","coordinates":[139.264444,-35.13222200088934]},"properties":{"ACCURACY":"Medium","COUNTRY":"AUSTRALIA","LAST_UPDAT":"2007-10-19T00:00:00.000Z","MI_STYLE":"Symbol (66,0,6,\"Topography\",256,0)","NAME":"Murray Bridge","SOURCE":"Australian Bureau of Statistics - 1995","STATE":"South Australia"}},
{"type":"Feature","geometry":{"type":"Point","coordinates":[149.588889,-32.60333300085811]},"properties":{"ACCURACY":"Medium","COUNTRY":"AUSTRALIA","LAST_UPDAT":"2007-10-19T00:00:00.000Z","MI_STYLE":"Symbol (66,0,6,\"Topography\",256,0)","NAME":"Mudgee","SOURCE":"Australian Bureau of Statistics - 1995","STATE":"New South Wales"}},
{"type":"Feature","geometry":{"type":"Point","coordinates":[150.391944,-23.64666700069549]},"properties":{"ACCURACY":"Medium","COUNTRY":"AUSTRALIA","LAST_UPDAT":"2010-03-18T00:00:00.000Z","MI_STYLE":"Symbol (66,0,6,\"Topography\",256,0)","NAME":"Mount Morgan","SOURCE":"Australian Bureau of Statistics - 1995","STATE":"Queensland"}},
{"type":"Feature","geometry":{"type":"Point","coordinates":[139.484167,-20.73138900062691]},"properties":{"ACCURACY":"Medium","COUNTRY":"AUSTRALIA","LAST_UPDAT":"2007-10-19T00:00:00.000Z","MI_STYLE":"Symbol (66,0,6,\"Topography\",256,0)","NAME":"Mount Isa","SOURCE":"Australian Bureau of Statistics - 1995","STATE":"Queensland"}},
{"type":"Feature","geometry":{"type":"Point","coordinates":[119.514444,-20.339722000617176]},"properties":{"ACCURACY":"Medium","COUNTRY":"AUSTRALIA","LAST_UPDAT":"2007-10-19T00:00:00.000Z","MI_STYLE":"Symbol (66,0,6,\"Topography\",256,0)","NAME":"Mount Goldsworthy","SOURCE":"Australian Bureau of Statistics - 1995","STATE":"Western Australia"}},
{"type":"Feature","geometry":{"type":"Point","coordinates":[140.775556,-37.835556000915034]},"properties":{"ACCURACY":"Medium","COUNTRY":"AUSTRALIA","LAST_UPDAT":"2007-10-19T00:00:00.000Z","MI_STYLE":"Symbol (66,0,6,\"Topography\",256,0)","NAME":"Mount Gambier","SOURCE":"Australian Bureau of Statistics - 1995","STATE":"South Australia"}},
{"type":"Feature","geometry":{"type":"Point","coordinates":[147.174444,-36.7513890009057]},"properties":{"ACCURACY":"Medium","COUNTRY":"AUSTRALIA","LAST_UPDAT":"2007-10-19T00:00:00.000Z","MI_STYLE":"Symbol (66,0,6,\"Topography\",256,0)","NAME":"Mount Beauty","SOURCE":"Australian Bureau of Statistics - 1995","STATE":"Victoria"}},
{"type":"Feature","geometry":{"type":"Point","coordinates":[117.665278,-34.633333000883724]},"properties":{"ACCURACY":"Medium","COUNTRY":"AUSTRALIA","LAST_UPDAT":"2007-10-19T00:00:00.000Z","MI_STYLE":"Symbol (66,0,6,\"Topography\",256,0)","NAME":"Mount Barker","SOURCE":"Australian Bureau of Statistics - 1995","STATE":"Western Australia"}},
{"type":"Feature","geometry":{"type":"Point","coordinates":[144.021667,-35.09666700088895]},"properties":{"ACCURACY":"Medium","COUNTRY":"AUSTRALIA","LAST_UPDAT":"2007-10-19T00:00:00.000Z","MI_STYLE":"Symbol (66,0,6,\"Topography\",256,0)","NAME":"Moulamein","SOURCE":"Australian Bureau of Statistics - 1995","STATE":"New South Wales"}},
{"type":"Feature","geometry":{"type":"Point","coordinates":[150.371667,-34.550556000882764]},"properties":{"ACCURACY":"Medium","COUNTRY":"AUSTRALIA","LAST_UPDAT":"2007-10-19T00:00:00.000Z","MI_STYLE":"Symbol (66,0,6,\"Topography\",256,0)","NAME":"Moss Vale","SOURCE":"Australian Bureau of Statistics - 1995","STATE":"New South Wales"}},
{"type":"Feature","geometry":{"type":"Point","coordinates":[146.406667,-38.23666700091815]},"properties":{"ACCURACY":"Medium","COUNTRY":"AUSTRALIA","LAST_UPDAT":"2007-10-19T00:00:00.000Z","MI_STYLE":"Symbol (66,0,6,\"Topography\",256,0)","NAME":"Morwell","SOURCE":"Australian Bureau of Statistics - 1995","STATE":"Victoria"}},
{"type":"Feature","geometry":{"type":"Point","coordinates":[150.070278,-35.916667000897625]},"properties":{"ACCURACY":"Medium","COUNTRY":"AUSTRALIA","LAST_UPDAT":"2007-10-19T00:00:00.000Z","MI_STYLE":"Symbol (66,0,6,\"Topography\",256,0)","NAME":"Moruya","SOURCE":"Australian Bureau of Statistics - 1995","STATE":"New South Wales"}},
{"type":"Feature","geometry":{"type":"Point","coordinates":[142.808056,-38.08194400091697]},"properties":{"ACCURACY":"Medium","COUNTRY":"AUSTRALIA","LAST_UPDAT":"2007-10-19T00:00:00.000Z","MI_STYLE":"Symbol (66,0,6,\"Topography\",256,0)","NAME":"Mortlake","SOURCE":"Australian Bureau of Statistics - 1995","STATE":"Victoria"}},
{"type":"Feature","geometry":{"type":"Point","coordinates":[145.04250000000002,-38.23888900091817]},"properties":{"ACCURACY":"Medium","COUNTRY":"AUSTRALIA","LAST_UPDAT":"2007-10-19T00:00:00.000Z","MI_STYLE":"Symbol (66,0,6,\"Topography\",256,0)","NAME":"Mornington","SOURCE":"Australian Bureau of Statistics - 1995","STATE":"Victoria"}},
{"type":"Feature","geometry":{"type":"Point","coordinates":[148.045278,-22.002222000657657]},"properties":{"ACCURACY":"Medium","COUNTRY":"AUSTRALIA","LAST_UPDAT":"2007-10-19T00:00:00.000Z","MI_STYLE":"Symbol (66,0,6,\"Topography\",256,0)","NAME":"Moranbah","SOURCE":"Australian Bureau of Statistics - 1995","STATE":"Queensland"}},
{"type":"Feature","geometry":{"type":"Point","coordinates":[145.35222199999998,-36.38638900090227]},"properties":{"ACCURACY":"Medium","COUNTRY":"AUSTRALIA","LAST_UPDAT":"2007-10-19T00:00:00.000Z","MI_STYLE":"Symbol (66,0,6,\"Topography\",256,0)","NAME":"Mooroopna","SOURCE":"Australian Bureau of Statistics - 1995","STATE":"Victoria"}},
{"type":"Feature","geometry":{"type":"Point","coordinates":[148.865556,-33.096389000864725]},"properties":{"ACCURACY":"Medium","COUNTRY":"AUSTRALIA","LAST_UPDAT":"2007-10-19T00:00:00.000Z","MI_STYLE":"Symbol (66,0,6,\"Topography\",256,0)","NAME":"Molong","SOURCE":"Australian Bureau of Statistics - 1995","STATE":"New South Wales"}},
{"type":"Feature","geometry":{"type":"Point","coordinates":[146.25111099999998,-38.18777800091779]},"properties":{"ACCURACY":"Medium","COUNTRY":"AUSTRALIA","LAST_UPDAT":"2007-10-19T00:00:00.000Z","MI_STYLE":"Symbol (66,0,6,\"Topography\",256,0)","NAME":"Moe","SOURCE":"Australian Bureau of Statistics - 1995","STATE":"Victoria"}},
{"type":"Feature","geometry":{"type":"Point","coordinates":[144.761111,-36.11166700089958]},"properties":{"ACCURACY":"Medium","COUNTRY":"AUSTRALIA","LAST_UPDAT":"2007-10-19T00:00:00.000Z","MI_STYLE":"Symbol (66,0,6,\"Topography\",256,0)","NAME":"Moama","SOURCE":"Australian Bureau of Statistics - 1995","STATE":"New South Wales"}},
{"type":"Feature","geometry":{"type":"Point","coordinates":[150.4375,-34.453056000881624]},"properties":{"ACCURACY":"Medium","COUNTRY":"AUSTRALIA","LAST_UPDAT":"2007-10-19T00:00:00.000Z","MI_STYLE":"Symbol (66,0,6,\"Topography\",256,0)","NAME":"Mittagong","SOURCE":"Australian Bureau of Statistics - 1995","STATE":"New South Wales"}},
{"type":"Feature","geometry":{"type":"Point","coordinates":[147.97467,-26.485293000755295]},"properties":{"ACCURACY":"Medium","COUNTRY":"AUSTRALIA","LAST_UPDAT":"2010-03-18T00:00:00.000Z","MI_STYLE":"Symbol (66,0,6,\"Topography\",256,0)","NAME":"Mitchell","SOURCE":"digitised from 250k raster","STATE":"Queensland"}},
{"type":"Feature","geometry":{"type":"Point","coordinates":[140.35500000000002,-37.610278000913205]},"properties":{"ACCURACY":"Medium","COUNTRY":"AUSTRALIA","LAST_UPDAT":"2007-10-19T00:00:00.000Z","MI_STYLE":"Symbol (66,0,6,\"Topography\",256,0)","NAME":"Millicent","SOURCE":"Australian Bureau of Statistics - 1995","STATE":"South Australia"}},
{"type":"Feature","geometry":{"type":"Point","coordinates":[142.16305599999998,-34.19277800087854]},"properties":{"ACCURACY":"Medium","COUNTRY":"AUSTRALIA","LAST_UPDAT":"2007-10-19T00:00:00.000Z","MI_STYLE":"Symbol (66,0,6,\"Topography\",256,0)","NAME":"Mildura","SOURCE":"Australian Bureau of Statistics - 1995","STATE":"Victoria"}},
{"type":"Feature","geometry":{"type":"Point","coordinates":[144.079722,-37.84666700091512]},"properties":{"ACCURACY":"Medium","COUNTRY":"AUSTRALIA","LAST_UPDAT":"2007-10-19T00:00:00.000Z","MI_STYLE":"Symbol (66,0,6,\"Topography\",256,0)","NAME":"Meredith","SOURCE":"Australian Bureau of Statistics - 1995","STATE":"Victoria"}},
{"type":"Feature","geometry":{"type":"Point","coordinates":[132.282848,-14.468034000458383]},"properties":{"ACCURACY":"Medium","COUNTRY":"AUSTRALIA","LAST_UPDAT":"2013-05-15T00:00:00.000Z","MI_STYLE":"Symbol (66,0,6,\"Topography\",256,0)","NAME":"Katherine","SOURCE":"Australia 250k Topographic map","STATE":"Northern Territory"}},
{"type":"Feature","geometry":{"type":"Point","coordinates":[148.582971,-28.038968000784894]},"properties":{"ACCURACY":"Medium","COUNTRY":"AUSTRALIA","LAST_UPDAT":"2010-03-18T00:00:00.000Z","MI_STYLE":"Symbol (66,0,6,\"Topography\",256,0)","NAME":"St George","SOURCE":"digitised from 250k raster","STATE":"Queensland"}},
{"type":"Feature","geometry":{"type":"Point","coordinates":[143.822027,-27.99620800078411]},"properties":{"ACCURACY":"Medium","COUNTRY":"AUSTRALIA","LAST_UPDAT":"2007-10-19T00:00:00.000Z","MI_STYLE":"Symbol (66,0,6,\"Topography\",256,0)","NAME":"Thargomindah","SOURCE":"Australian Bureau of Statistics - 1995","STATE":"Queensland"}},
{"type":"Feature","geometry":{"type":"Point","coordinates":[143.268112,-26.671530000758963]},"properties":{"ACCURACY":"Medium","COUNTRY":"AUSTRALIA","LAST_UPDAT":"2007-10-19T00:00:00.000Z","MI_STYLE":"Symbol (66,0,6,\"Topography\",256,0)","NAME":"Eromanga","SOURCE":"Australian Bureau of Statistics - 1995","STATE":"Queensland"}},
{"type":"Feature","geometry":{"type":"Point","coordinates":[144.269949,-26.616602000757887]},"properties":{"ACCURACY":"Medium","COUNTRY":"AUSTRALIA","LAST_UPDAT":"2007-10-19T00:00:00.000Z","MI_STYLE":"Symbol (66,0,6,\"Topography\",256,0)","NAME":"Quilpie","SOURCE":"Australian Bureau of Statistics - 1995","STATE":"Queensland"}},
{"type":"Feature","geometry":{"type":"Point","coordinates":[149.186169,-26.587188000757305]},"properties":{"ACCURACY":"Medium","COUNTRY":"AUSTRALIA","LAST_UPDAT":"2010-03-18T00:00:00.000Z","MI_STYLE":"Symbol (66,0,6,\"Topography\",256,0)","NAME":"Wallumbilla","SOURCE":"Australian Bureau of Statistics - 1995","STATE":"Queensland"}},
{"type":"Feature","geometry":{"type":"Point","coordinates":[148.785706,-26.578150000757127]},"properties":{"ACCURACY":"Medium","COUNTRY":"AUSTRALIA","LAST_UPDAT":"2007-10-19T00:00:00.000Z","MI_STYLE":"Symbol (66,0,6,\"Topography\",256,0)","NAME":"Roma","SOURCE":"Australian Bureau of Statistics - 1995","STATE":"Queensland"}},
{"type":"Feature","geometry":{"type":"Point","coordinates":[153.154421,-27.410229000773192]},"properties":{"ACCURACY":"Medium","COUNTRY":"AUSTRALIA","LAST_UPDAT":"2007-10-19T00:00:00.000Z","MI_STYLE":"Symbol (66,0,6,\"Topography\",256,0)","NAME":"Lytton","SOURCE":"Australian Bureau of Statistics - 1995","STATE":"Queensland"}},
{"type":"Feature","geometry":{"type":"Point","coordinates":[140.837879,-37.38218900091129]},"properties":{"ACCURACY":"Medium","COUNTRY":"AUSTRALIA","LAST_UPDAT":"2007-10-19T00:00:00.000Z","MI_STYLE":"Symbol (66,0,6,\"Topography\",256,0)","NAME":"Penola","SOURCE":"Australian Bureau of Statistics - 1995","STATE":"South Australia"}},
{"type":"Feature","geometry":{"type":"Point","coordinates":[145.281836,-23.553741000693414]},"properties":{"ACCURACY":"Medium","COUNTRY":"AUSTRALIA","LAST_UPDAT":"2007-10-19T00:00:00.000Z","MI_STYLE":"Symbol (66,0,6,\"Topography\",256,0)","NAME":"Barcaldine","SOURCE":"Australian Bureau of Statistics - 1995","STATE":"Queensland"}},
{"type":"Feature","geometry":{"type":"Point","coordinates":[150.369616,-27.71662300077894]},"properties":{"ACCURACY":"Medium","COUNTRY":"AUSTRALIA","LAST_UPDAT":"2010-03-18T00:00:00.000Z","MI_STYLE":"Symbol (66,0,6,\"Topography\",256,0)","NAME":"Moonie","SOURCE":"Australian Bureau of Statistics - 1995","STATE":"Queensland"}},
{"type":"Feature","geometry":{"type":"Point","coordinates":[140.736474,-27.746370000779496]},"properties":{"ACCURACY":"Medium","COUNTRY":"AUSTRALIA","LAST_UPDAT":"2007-10-19T00:00:00.000Z","MI_STYLE":"Symbol (66,0,6,\"Topography\",256,0)","NAME":"Innamincka","SOURCE":"Australian Bureau of Statistics - 1995","STATE":"South Australia"}},
{"type":"Feature","geometry":{"type":"Point","coordinates":[138.926848,-33.6771160008722]},"properties":{"ACCURACY":"Medium","COUNTRY":"AUSTRALIA","LAST_UPDAT":"2007-10-19T00:00:00.000Z","MI_STYLE":"Symbol (66,0,6,\"Topography\",256,0)","NAME":"Burra","SOURCE":"Australian Bureau of Statistics - 1995","STATE":"South Australia"}},
{"type":"Feature","geometry":{"type":"Point","coordinates":[142.418475,-27.622478000777186]},"properties":{"ACCURACY":"Medium","COUNTRY":"AUSTRALIA","LAST_UPDAT":"2007-10-19T00:00:00.000Z","MI_STYLE":"Symbol (66,0,6,\"Topography\",256,0)","NAME":"Jackson","SOURCE":"Australian Bureau of Statistics - 1995","STATE":"Queensland"}},
{"type":"Feature","geometry":{"type":"Point","coordinates":[141.807384,-27.392431000772856]},"properties":{"ACCURACY":"Medium","COUNTRY":"AUSTRALIA","LAST_UPDAT":"2007-10-19T00:00:00.000Z","MI_STYLE":"Symbol (66,0,6,\"Topography\",256,0)","NAME":"Ballera","SOURCE":"Australian Bureau of Statistics - 1995","STATE":"Queensland"}},
{"type":"Feature","geometry":{"type":"Point","coordinates":[140.204002,-28.11369400078626]},"properties":{"ACCURACY":"Medium","COUNTRY":"AUSTRALIA","LAST_UPDAT":"2007-10-19T00:00:00.000Z","MI_STYLE":"Symbol (66,0,6,\"Topography\",256,0)","NAME":"Moomba","SOURCE":"Australian Bureau of Statistics - 1995","STATE":"South Australia"}},
{"type":"Feature","geometry":{"type":"Point","coordinates":[121.660665,-31.193614000837755]},"properties":{"ACCURACY":"Medium","COUNTRY":"AUSTRALIA","LAST_UPDAT":"2007-10-19T00:00:00.000Z","MI_STYLE":"Symbol (66,0,6,\"Topography\",256,0)","NAME":"Kambalda","SOURCE":"Australian Bureau of Statistics - 1995","STATE":"Western Australia"}},
{"type":"Feature","geometry":{"type":"Point","coordinates":[120.633802,-26.352720000752665]},"properties":{"ACCURACY":"Medium","COUNTRY":"AUSTRALIA","LAST_UPDAT":"2007-10-19T00:00:00.000Z","MI_STYLE":"Symbol (66,0,6,\"Topography\",256,0)","NAME":"Jundee","SOURCE":"Australian Bureau of Statistics - 1995","STATE":"Western Australia"}},
{"type":"Feature","geometry":{"type":"Point","coordinates":[118.544236,-28.327753000790143]},"properties":{"ACCURACY":"Medium","COUNTRY":"AUSTRALIA","LAST_UPDAT":"2007-10-19T00:00:00.000Z","MI_STYLE":"Symbol (66,0,6,\"Topography\",256,0)","NAME":"Windimurra","SOURCE":"Australian Bureau of Statistics - 1995","STATE":"Western Australia"}},
{"type":"Feature","geometry":{"type":"Point","coordinates":[146.472519,-38.400986000919374]},"properties":{"ACCURACY":"Medium","COUNTRY":"AUSTRALIA","LAST_UPDAT":"2007-10-19T00:00:00.000Z","MI_STYLE":"Symbol (66,0,6,\"Topography\",256,0)","NAME":"Jeeralang","SOURCE":"Australian Bureau of Statistics - 1995","STATE":"Victoria"}},
{"type":"Feature","geometry":{"type":"Point","coordinates":[147.184803,-38.22817000091809]},"properties":{"ACCURACY":"Medium","COUNTRY":"AUSTRALIA","LAST_UPDAT":"2016-02-10T00:00:00.000Z","MI_STYLE":"Symbol (66,0,6,\"Topography\",256,0)","NAME":"Longford","SOURCE":"Australian Bureau of Statistics - 1995","STATE":"Victoria"}},
{"type":"Feature","geometry":{"type":"Point","coordinates":[147.113611,-41.59694400093715]},"properties":{"ACCURACY":"Medium","COUNTRY":"AUSTRALIA","LAST_UPDAT":"2007-10-19T00:00:00.000Z","MI_STYLE":"Symbol (66,0,6,\"Topography\",256,0)","NAME":"Longford","SOURCE":"Australian Bureau of Statistics - 1995","STATE":"Tasmania"}},
{"type":"Feature","geometry":{"type":"Point","coordinates":[136.831785,-12.280893000393876]},"properties":{"ACCURACY":"Medium","COUNTRY":"AUSTRALIA","LAST_UPDAT":"2014-04-15T00:00:00.000Z","MI_STYLE":"Symbol (66,0,6,\"Topography\",256,0)","NAME":"Gove","SOURCE":"modified from Australia 250k Topo - 2005","STATE":"Northern Territory"}},
{"type":"Feature","geometry":{"type":"Point","coordinates":[135.850902,-16.653357000520135]},"properties":{"ACCURACY":"Medium","COUNTRY":"AUSTRALIA","LAST_UPDAT":"2014-04-15T00:00:00.000Z","MI_STYLE":"Symbol (66,0,6,\"Topography\",256,0)","NAME":"Mcarthur River","SOURCE":"modified from Australia 250k Topo - 2005","STATE":"Northern Territory"}},
{"type":"Feature","geometry":{"type":"Point","coordinates":[115.119333,-21.645517000649154]},"properties":{"ACCURACY":"Medium","COUNTRY":"AUSTRALIA","LAST_UPDAT":"2007-10-19T00:00:00.000Z","MI_STYLE":"Symbol (66,0,6,\"Topography\",256,0)","NAME":"Onslow","SOURCE":"Australian Bureau of Statistics - 1995","STATE":"Western Australia"}},
{"type":"Feature","geometry":{"type":"Point","coordinates":[142.874472,-38.60451600092085]},"properties":{"ACCURACY":"Medium","COUNTRY":"AUSTRALIA","LAST_UPDAT":"2007-10-19T00:00:00.000Z","MI_STYLE":"Symbol (66,0,6,\"Topography\",256,0)","NAME":"Peterborough","SOURCE":"Australian Bureau of Statistics - 1995","STATE":"Victoria"}},
{"type":"Feature","geometry":{"type":"Point","coordinates":[142.834105,-38.51976600092024]},"properties":{"ACCURACY":"Medium","COUNTRY":"AUSTRALIA","LAST_UPDAT":"2007-10-19T00:00:00.000Z","MI_STYLE":"Symbol (66,0,6,\"Topography\",256,0)","NAME":"Curdievale","SOURCE":"Australian Bureau of Statistics - 1995","STATE":"Victoria"}},
{"type":"Feature","geometry":{"type":"Point","coordinates":[142.972747,-38.48149600091997]},"properties":{"ACCURACY":"Medium","COUNTRY":"AUSTRALIA","LAST_UPDAT":"2007-10-19T00:00:00.000Z","MI_STYLE":"Symbol (66,0,6,\"Topography\",256,0)","NAME":"Timboon","SOURCE":"Australian Bureau of Statistics - 1995","STATE":"Victoria"}},
{"type":"Feature","geometry":{"type":"Point","coordinates":[133.716667,-32.16666700085202]},"properties":{"ACCURACY":"Medium","COUNTRY":"AUSTRALIA","LAST_UPDAT":"2007-10-19T00:00:00.000Z","MI_STYLE":"Symbol (66,0,6,\"Topography\",256,0)","NAME":"Ceduna","SOURCE":"Australian Bureau of Statistics - 1995","STATE":"South Australia"}},
{"type":"Feature","geometry":{"type":"Point","coordinates":[134.76666699999998,-29.000000000802046]},"properties":{"ACCURACY":"Medium","COUNTRY":"AUSTRALIA","LAST_UPDAT":"2007-10-19T00:00:00.000Z","MI_STYLE":"Symbol (66,0,6,\"Topography\",256,0)","NAME":"Coober Pedy","SOURCE":"Australian Bureau of Statistics - 1995","STATE":"South Australia"}},
{"type":"Feature","geometry":{"type":"Point","coordinates":[137.767405,-32.989562000863316]},"properties":{"ACCURACY":"Medium","COUNTRY":"AUSTRALIA","LAST_UPDAT":"2007-10-19T00:00:00.000Z","MI_STYLE":"Symbol (66,0,6,\"Topography\",256,0)","NAME":"Port Bonython","SOURCE":"Australian Bureau of Statistics - 1995","STATE":"South Australia"}},
{"type":"Feature","geometry":{"type":"Point","coordinates":[141.466667,-31.95000000084893]},"properties":{"ACCURACY":"Medium","COUNTRY":"AUSTRALIA","LAST_UPDAT":"2007-10-19T00:00:00.000Z","MI_STYLE":"Symbol (66,0,6,\"Topography\",256,0)","NAME":"Broken Hill","SOURCE":"Australian Bureau of Statistics - 1995","STATE":"New South Wales"}},
{"type":"Feature","geometry":{"type":"Point","coordinates":[145.327222,-41.88277800093817]},"properties":{"ACCURACY":"Medium","COUNTRY":"AUSTRALIA","LAST_UPDAT":"2007-10-19T00:00:00.000Z","MI_STYLE":"Symbol (66,0,6,\"Topography\",256,0)","NAME":"Zeehan","SOURCE":"Australian Bureau of Statistics - 1995","STATE":"Tasmania"}},
{"type":"Feature","geometry":{"type":"Point","coordinates":[148.291944,-34.315833000880005]},"properties":{"ACCURACY":"Medium","COUNTRY":"AUSTRALIA","LAST_UPDAT":"2007-10-19T00:00:00.000Z","MI_STYLE":"Symbol (66,0,6,\"Topography\",256,0)","NAME":"Young","SOURCE":"Australian Bureau of Statistics - 1995","STATE":"New South Wales"}},
{"type":"Feature","geometry":{"type":"Point","coordinates":[116.762778,-31.89111100084808]},"properties":{"ACCURACY":"Medium","COUNTRY":"AUSTRALIA","LAST_UPDAT":"2007-10-19T00:00:00.000Z","MI_STYLE":"Symbol (66,0,6,\"Topography\",256,0)","NAME":"York","SOURCE":"Australian Bureau of Statistics - 1995","STATE":"Western Australia"}},
{"type":"Feature","geometry":{"type":"Point","coordinates":[150.746389,-23.127500000683796]},"properties":{"ACCURACY":"Medium","COUNTRY":"AUSTRALIA","LAST_UPDAT":"2007-10-19T00:00:00.000Z","MI_STYLE":"Symbol (66,0,6,\"Topography\",256,0)","NAME":"Yeppoon","SOURCE":"Australian Bureau of Statistics - 1995","STATE":"Queensland"}},
{"type":"Feature","geometry":{"type":"Point","coordinates":[146.190278,-34.262222000879376]},"properties":{"ACCURACY":"Medium","COUNTRY":"AUSTRALIA","LAST_UPDAT":"2007-10-19T00:00:00.000Z","MI_STYLE":"Symbol (66,0,6,\"Topography\",256,0)","NAME":"Yenda","SOURCE":"Australian Bureau of Statistics - 1995","STATE":"New South Wales"}},
{"type":"Feature","geometry":{"type":"Point","coordinates":[145.426667,-37.2202780009099]},"properties":{"ACCURACY":"Medium","COUNTRY":"AUSTRALIA","LAST_UPDAT":"2007-10-19T00:00:00.000Z","MI_STYLE":"Symbol (66,0,6,\"Topography\",256,0)","NAME":"Yea","SOURCE":"Australian Bureau of Statistics - 1995","STATE":"Victoria"}},
{"type":"Feature","geometry":{"type":"Point","coordinates":[148.910278,-34.843056000886115]},"properties":{"ACCURACY":"Medium","COUNTRY":"AUSTRALIA","LAST_UPDAT":"2007-10-19T00:00:00.000Z","MI_STYLE":"Symbol (66,0,6,\"Topography\",256,0)","NAME":"Yass","SOURCE":"Australian Bureau of Statistics - 1995","STATE":"New South Wales"}},
{"type":"Feature","geometry":{"type":"Point","coordinates":[146.003333,-36.01833300089865]},"properties":{"ACCURACY":"Medium","COUNTRY":"AUSTRALIA","LAST_UPDAT":"2007-10-19T00:00:00.000Z","MI_STYLE":"Symbol (66,0,6,\"Topography\",256,0)","NAME":"Yarrawonga","SOURCE":"Australian Bureau of Statistics - 1995","STATE":"Victoria"}},
{"type":"Feature","geometry":{"type":"Point","coordinates":[146.672222,-38.56500000092058]},"properties":{"ACCURACY":"Medium","COUNTRY":"AUSTRALIA","LAST_UPDAT":"2007-10-19T00:00:00.000Z","MI_STYLE":"Symbol (66,0,6,\"Topography\",256,0)","NAME":"Yarram","SOURCE":"Australian Bureau of Statistics - 1995","STATE":"Victoria"}},
{"type":"Feature","geometry":{"type":"Point","coordinates":[145.377222,-37.65694400091358]},"properties":{"ACCURACY":"Medium","COUNTRY":"AUSTRALIA","LAST_UPDAT":"2007-10-19T00:00:00.000Z","MI_STYLE":"Symbol (66,0,6,\"Topography\",256,0)","NAME":"Yarra Glen","SOURCE":"Australian Bureau of Statistics - 1995","STATE":"Victoria"}},
{"type":"Feature","geometry":{"type":"Point","coordinates":[146.836944,-36.31333300090156]},"properties":{"ACCURACY":"Medium","COUNTRY":"AUSTRALIA","LAST_UPDAT":"2007-10-19T00:00:00.000Z","MI_STYLE":"Symbol (66,0,6,\"Topography\",256,0)","NAME":"Yackandandah","SOURCE":"Australian Bureau of Statistics - 1995","STATE":"Victoria"}},
{"type":"Feature","geometry":{"type":"Point","coordinates":[151.425,-33.28111100086714]},"properties":{"ACCURACY":"Medium","COUNTRY":"AUSTRALIA","LAST_UPDAT":"2007-10-19T00:00:00.000Z","MI_STYLE":"Symbol (66,0,6,\"Topography\",256,0)","NAME":"Wyong","SOURCE":"Australian Bureau of Statistics - 1995","STATE":"New South Wales"}},
{"type":"Feature","geometry":{"type":"Point","coordinates":[145.714167,-40.98416700093464]},"properties":{"ACCURACY":"Medium","COUNTRY":"AUSTRALIA","LAST_UPDAT":"2007-10-19T00:00:00.000Z","MI_STYLE":"Symbol (66,0,6,\"Topography\",256,0)","NAME":"Wynyard","SOURCE":"Australian Bureau of Statistics - 1995","STATE":"Tasmania"}},
{"type":"Feature","geometry":{"type":"Point","coordinates":[143.22388899999999,-36.081389000899286]},"properties":{"ACCURACY":"Medium","COUNTRY":"AUSTRALIA","LAST_UPDAT":"2007-10-19T00:00:00.000Z","MI_STYLE":"Symbol (66,0,6,\"Topography\",256,0)","NAME":"Wycheproof","SOURCE":"Australian Bureau of Statistics - 1995","STATE":"Victoria"}},
{"type":"Feature","geometry":{"type":"Point","coordinates":[151.427778,-33.49500000086991]},"properties":{"ACCURACY":"Medium","COUNTRY":"AUSTRALIA","LAST_UPDAT":"2007-10-19T00:00:00.000Z","MI_STYLE":"Symbol (66,0,6,\"Topography\",256,0)","NAME":"Woy Woy","SOURCE":"Australian Bureau of Statistics - 1995","STATE":"New South Wales"}},
{"type":"Feature","geometry":{"type":"Point","coordinates":[136.9,-30.550000000827783]},"properties":{"ACCURACY":"Medium","COUNTRY":"AUSTRALIA","LAST_UPDAT":"2007-10-19T00:00:00.000Z","MI_STYLE":"Symbol (66,0,6,\"Topography\",256,0)","NAME":"Roxby Downs","SOURCE":"Australian Bureau of Statistics - 1995","STATE":"South Australia"}},
{"type":"Feature","geometry":{"type":"Point","coordinates":[144.528333,-37.35583300091106]},"properties":{"ACCURACY":"Medium","COUNTRY":"AUSTRALIA","LAST_UPDAT":"2007-10-19T00:00:00.000Z","MI_STYLE":"Symbol (66,0,6,\"Topography\",256,0)","NAME":"Woodend","SOURCE":"Australian Bureau of Statistics - 1995","STATE":"Victoria"}},
{"type":"Feature","geometry":{"type":"Point","coordinates":[145.590278,-38.614444000920926]},"properties":{"ACCURACY":"Medium","COUNTRY":"AUSTRALIA","LAST_UPDAT":"2007-10-19T00:00:00.000Z","MI_STYLE":"Symbol (66,0,6,\"Topography\",256,0)","NAME":"Wonthaggi","SOURCE":"Australian Bureau of Statistics - 1995","STATE":"Victoria"}},
{"type":"Feature","geometry":{"type":"Point","coordinates":[150.874167,-34.42611100088131]},"properties":{"ACCURACY":"Medium","COUNTRY":"AUSTRALIA","LAST_UPDAT":"2007-10-19T00:00:00.000Z","MI_STYLE":"Symbol (66,0,6,\"Topography\",256,0)","NAME":"Wollongong","SOURCE":"Australian Bureau of Statistics - 1995","STATE":"New South Wales"}},
{"type":"Feature","geometry":{"type":"Point","coordinates":[146.878333,-36.1338890008998]},"properties":{"ACCURACY":"Medium","COUNTRY":"AUSTRALIA","LAST_UPDAT":"2007-10-19T00:00:00.000Z","MI_STYLE":"Symbol (66,0,6,\"Topography\",256,0)","NAME":"Wodonga","SOURCE":"Australian Bureau of Statistics - 1995","STATE":"Victoria"}},
{"type":"Feature","geometry":{"type":"Point","coordinates":[118.333056,-22.243889000663355]},"properties":{"ACCURACY":"Medium","COUNTRY":"AUSTRALIA","LAST_UPDAT":"2007-10-19T00:00:00.000Z","MI_STYLE":"Symbol (66,0,6,\"Topography\",256,0)","NAME":"Wittenoom Gorge","SOURCE":"Australian Bureau of Statistics - 1995","STATE":"Western Australia"}},
{"type":"Feature","geometry":{"type":"Point","coordinates":[143.033889,-22.387222000666714]},"properties":{"ACCURACY":"Medium","COUNTRY":"AUSTRALIA","LAST_UPDAT":"2007-10-19T00:00:00.000Z","MI_STYLE":"Symbol (66,0,6,\"Topography\",256,0)","NAME":"Winton","SOURCE":"Australian Bureau of Statistics - 1995","STATE":"Queensland"}},
{"type":"Feature","geometry":{"type":"Point","coordinates":[137.566667,-33.0341670008639]},"properties":{"ACCURACY":"Medium","COUNTRY":"AUSTRALIA","LAST_UPDAT":"2007-10-19T00:00:00.000Z","MI_STYLE":"Symbol (66,0,6,\"Topography\",256,0)","NAME":"Whyalla","SOURCE":"Australian Bureau of Statistics - 1995","STATE":"South Australia"}},
{"type":"Feature","geometry":{"type":"Point","coordinates":[146.83083299999998,-41.5305560009369]},"properties":{"ACCURACY":"Medium","COUNTRY":"AUSTRALIA","LAST_UPDAT":"2007-10-19T00:00:00.000Z","MI_STYLE":"Symbol (66,0,6,\"Topography\",256,0)","NAME":"Westbury","SOURCE":"Australian Bureau of Statistics - 1995","STATE":"Tasmania"}},
{"type":"Feature","geometry":{"type":"Point","coordinates":[147.2075,-33.92472200087528]},"properties":{"ACCURACY":"Medium","COUNTRY":"AUSTRALIA","LAST_UPDAT":"2007-10-19T00:00:00.000Z","MI_STYLE":"Symbol (66,0,6,\"Topography\",256,0)","NAME":"West Wyalong","SOURCE":"Australian Bureau of Statistics - 1995","STATE":"New South Wales"}},
{"type":"Feature","geometry":{"type":"Point","coordinates":[144.656389,-37.89888900091554]},"properties":{"ACCURACY":"Medium","COUNTRY":"AUSTRALIA","LAST_UPDAT":"2007-10-19T00:00:00.000Z","MI_STYLE":"Symbol (66,0,6,\"Topography\",256,0)","NAME":"Werribee","SOURCE":"Australian Bureau of Statistics - 1995","STATE":"Victoria"}},
{"type":"Feature","geometry":{"type":"Point","coordinates":[141.909722,-34.110556000877544]},"properties":{"ACCURACY":"Medium","COUNTRY":"AUSTRALIA","LAST_UPDAT":"2007-10-19T00:00:00.000Z","MI_STYLE":"Symbol (66,0,6,\"Topography\",256,0)","NAME":"Wentworth","SOURCE":"Australian Bureau of Statistics - 1995","STATE":"New South Wales"}},
{"type":"Feature","geometry":{"type":"Point","coordinates":[148.950556,-32.560000000857514]},"properties":{"ACCURACY":"Medium","COUNTRY":"AUSTRALIA","LAST_UPDAT":"2007-10-19T00:00:00.000Z","MI_STYLE":"Symbol (66,0,6,\"Topography\",256,0)","NAME":"Wellington","SOURCE":"Australian Bureau of Statistics - 1995","STATE":"New South Wales"}},
{"type":"Feature","geometry":{"type":"Point","coordinates":[141.884444,-12.62833300040429]},"properties":{"ACCURACY":"Medium","COUNTRY":"AUSTRALIA","LAST_UPDAT":"2007-10-19T00:00:00.000Z","MI_STYLE":"Symbol (66,0,6,\"Topography\",256,0)","NAME":"Weipa","SOURCE":"Australian Bureau of Statistics - 1995","STATE":"Queensland"}},
{"type":"Feature","geometry":{"type":"Point","coordinates":[118.585556,-20.37472200061805]},"properties":{"ACCURACY":"Medium","COUNTRY":"AUSTRALIA","LAST_UPDAT":"2007-10-19T00:00:00.000Z","MI_STYLE":"Symbol (66,0,6,\"Topography\",256,0)","NAME":"Wedgefield","SOURCE":"Australian Bureau of Statistics - 1995","STATE":"Western Australia"}},
{"type":"Feature","geometry":{"type":"Point","coordinates":[143.6125,-36.417778000902565]},"properties":{"ACCURACY":"Medium","COUNTRY":"AUSTRALIA","LAST_UPDAT":"2007-10-19T00:00:00.000Z","MI_STYLE":"Symbol (66,0,6,\"Topography\",256,0)","NAME":"Wedderburn","SOURCE":"Australian Bureau of Statistics - 1995","STATE":"Victoria"}},
{"type":"Feature","geometry":{"type":"Point","coordinates":[142.47722199999998,-38.382500000919244]},"properties":{"ACCURACY":"Medium","COUNTRY":"AUSTRALIA","LAST_UPDAT":"2007-10-19T00:00:00.000Z","MI_STYLE":"Symbol (66,0,6,\"Topography\",256,0)","NAME":"Warrnambool","SOURCE":"Australian Bureau of Statistics - 1995","STATE":"Victoria"}},
{"type":"Feature","geometry":{"type":"Point","coordinates":[147.834786,-31.700334000845306]},"properties":{"ACCURACY":"Medium","COUNTRY":"AUSTRALIA","LAST_UPDAT":"2010-11-11T00:00:00.000Z","MI_STYLE":"Symbol (66,0,6,\"Topography\",256,0)","NAME":"Warren","SOURCE":"Australia 250k Topo - 2005","STATE":"New South Wales"}},
{"type":"Feature","geometry":{"type":"Point","coordinates":[145.935833,-38.16138900091758]},"properties":{"ACCURACY":"Medium","COUNTRY":"AUSTRALIA","LAST_UPDAT":"2007-10-19T00:00:00.000Z","MI_STYLE":"Symbol (66,0,6,\"Topography\",256,0)","NAME":"Warragul","SOURCE":"Australian Bureau of Statistics - 1995","STATE":"Victoria"}},
{"type":"Feature","geometry":{"type":"Point","coordinates":[142.396944,-36.25861100090103]},"properties":{"ACCURACY":"Medium","COUNTRY":"AUSTRALIA","LAST_UPDAT":"2007-10-19T00:00:00.000Z","MI_STYLE":"Symbol (66,0,6,\"Topography\",256,0)","NAME":"Warracknabeal","SOURCE":"Australian Bureau of Statistics - 1995","STATE":"Victoria"}},
{"type":"Feature","geometry":{"type":"Point","coordinates":[115.923056,-32.849444000861446]},"properties":{"ACCURACY":"Medium","COUNTRY":"AUSTRALIA","LAST_UPDAT":"2007-10-19T00:00:00.000Z","MI_STYLE":"Symbol (66,0,6,\"Topography\",256,0)","NAME":"Waroona","SOURCE":"Australian Bureau of Statistics - 1995","STATE":"Western Australia"}},
{"type":"Feature","geometry":{"type":"Point","coordinates":[145.31277799999998,-38.220833000918034]},"properties":{"ACCURACY":"Medium","COUNTRY":"AUSTRALIA","LAST_UPDAT":"2007-10-19T00:00:00.000Z","MI_STYLE":"Symbol (66,0,6,\"Topography\",256,0)","NAME":"Warneet","SOURCE":"Australian Bureau of Statistics - 1995","STATE":"Victoria"}},
{"type":"Feature","geometry":{"type":"Point","coordinates":[115.745278,-32.33972200085446]},"properties":{"ACCURACY":"Medium","COUNTRY":"AUSTRALIA","LAST_UPDAT":"2007-10-19T00:00:00.000Z","MI_STYLE":"Symbol (66,0,6,\"Topography\",256,0)","NAME":"Warnbro","SOURCE":"Australian Bureau of Statistics - 1995","STATE":"Western Australia"}},
{"type":"Feature","geometry":{"type":"Point","coordinates":[145.700278,-37.760000000914424]},"properties":{"ACCURACY":"Medium","COUNTRY":"AUSTRALIA","LAST_UPDAT":"2007-10-19T00:00:00.000Z","MI_STYLE":"Symbol (66,0,6,\"Topography\",256,0)","NAME":"Warburton","SOURCE":"Australian Bureau of Statistics - 1995","STATE":"Victoria"}},
{"type":"Feature","geometry":{"type":"Point","coordinates":[146.303889,-36.36000000090201]},"properties":{"ACCURACY":"Medium","COUNTRY":"AUSTRALIA","LAST_UPDAT":"2007-10-19T00:00:00.000Z","MI_STYLE":"Symbol (66,0,6,\"Topography\",256,0)","NAME":"Wangaratta","SOURCE":"Australian Bureau of Statistics - 1995","STATE":"Victoria"}},
{"type":"Feature","geometry":{"type":"Point","coordinates":[144.980278,-37.418333000911595]},"properties":{"ACCURACY":"Medium","COUNTRY":"AUSTRALIA","LAST_UPDAT":"2007-10-19T00:00:00.000Z","MI_STYLE":"Symbol (66,0,6,\"Topography\",256,0)","NAME":"Wallan","SOURCE":"Australian Bureau of Statistics - 1995","STATE":"Victoria"}},
{"type":"Feature","geometry":{"type":"Point","coordinates":[117.34138899999999,-33.31444400086758]},"properties":{"ACCURACY":"Medium","COUNTRY":"AUSTRALIA","LAST_UPDAT":"2007-10-19T00:00:00.000Z","MI_STYLE":"Symbol (66,0,6,\"Topography\",256,0)","NAME":"Wagin","SOURCE":"Australian Bureau of Statistics - 1995","STATE":"Western Australia"}},
{"type":"Feature","geometry":{"type":"Point","coordinates":[147.351667,-35.12333300088924]},"properties":{"ACCURACY":"Medium","COUNTRY":"AUSTRALIA","LAST_UPDAT":"2007-10-19T00:00:00.000Z","MI_STYLE":"Symbol (66,0,6,\"Topography\",256,0)","NAME":"Wagga Wagga","SOURCE":"Australian Bureau of Statistics - 1995","STATE":"New South Wales"}},
{"type":"Feature","geometry":{"type":"Point","coordinates":[145.718333,-36.63916700090466]},"properties":{"ACCURACY":"Medium","COUNTRY":"AUSTRALIA","LAST_UPDAT":"2007-10-19T00:00:00.000Z","MI_STYLE":"Symbol (66,0,6,\"Topography\",256,0)","NAME":"Violet Town","SOURCE":"Australian Bureau of Statistics - 1995","STATE":"Victoria"}},
{"type":"Feature","geometry":{"type":"Point","coordinates":[146.257778,-35.32611100089145]},"properties":{"ACCURACY":"Medium","COUNTRY":"AUSTRALIA","LAST_UPDAT":"2007-10-19T00:00:00.000Z","MI_STYLE":"Symbol (66,0,6,\"Topography\",256,0)","NAME":"Urana","SOURCE":"Australian Bureau of Statistics - 1995","STATE":"New South Wales"}},
{"type":"Feature","geometry":{"type":"Point","coordinates":[146.168333,-41.162222000935415]},"properties":{"ACCURACY":"Medium","COUNTRY":"AUSTRALIA","LAST_UPDAT":"2007-10-19T00:00:00.000Z","MI_STYLE":"Symbol (66,0,6,\"Topography\",256,0)","NAME":"Ulverstone","SOURCE":"Australian Bureau of Statistics - 1995","STATE":"Tasmania"}},
{"type":"Feature","geometry":{"type":"Point","coordinates":[150.473268,-35.35316500089174]},"properties":{"ACCURACY":"Medium","COUNTRY":"AUSTRALIA","LAST_UPDAT":"2009-12-16T00:00:00.000Z","MI_STYLE":"Symbol (66,0,6,\"Topography\",256,0)","NAME":"Ulladulla","SOURCE":"Australian Bureau of Statistics - 1995","STATE":"New South Wales"}},
{"type":"Feature","geometry":{"type":"Point","coordinates":[150.136389,-36.05722200089904]},"properties":{"ACCURACY":"Medium","COUNTRY":"AUSTRALIA","LAST_UPDAT":"2007-10-19T00:00:00.000Z","MI_STYLE":"Symbol (66,0,6,\"Topography\",256,0)","NAME":"Tuross Head","SOURCE":"Australian Bureau of Statistics - 1995","STATE":"New South Wales"}},
{"type":"Feature","geometry":{"type":"Point","coordinates":[148.218611,-35.31027800089128]},"properties":{"ACCURACY":"Medium","COUNTRY":"AUSTRALIA","LAST_UPDAT":"2007-10-19T00:00:00.000Z","MI_STYLE":"Symbol (66,0,6,\"Topography\",256,0)","NAME":"Tumut","SOURCE":"Australian Bureau of Statistics - 1995","STATE":"New South Wales"}},
{"type":"Feature","geometry":{"type":"Point","coordinates":[148.011944,-35.77722200089621]},"properties":{"ACCURACY":"Medium","COUNTRY":"AUSTRALIA","LAST_UPDAT":"2007-10-19T00:00:00.000Z","MI_STYLE":"Symbol (66,0,6,\"Topography\",256,0)","NAME":"Tumbarumba","SOURCE":"Australian Bureau of Statistics - 1995","STATE":"New South Wales"}},
{"type":"Feature","geometry":{"type":"Point","coordinates":[145.920833,-17.9258330005547]},"properties":{"ACCURACY":"Medium","COUNTRY":"AUSTRALIA","LAST_UPDAT":"2007-10-19T00:00:00.000Z","MI_STYLE":"Symbol (66,0,6,\"Topography\",256,0)","NAME":"Tully","SOURCE":"Australian Bureau of Statistics - 1995","STATE":"Queensland"}},
{"type":"Feature","geometry":{"type":"Point","coordinates":[147.707843,-32.92325300086243]},"properties":{"ACCURACY":"Medium","COUNTRY":"AUSTRALIA","LAST_UPDAT":"2010-11-11T00:00:00.000Z","MI_STYLE":"Symbol (66,0,6,\"Topography\",256,0)","NAME":"Trundle","SOURCE":"Australia 250k Topo - 2005","STATE":"New South Wales"}},
{"type":"Feature","geometry":{"type":"Point","coordinates":[144.31722200000002,-37.39444400091139]},"properties":{"ACCURACY":"Medium","COUNTRY":"AUSTRALIA","LAST_UPDAT":"2007-10-19T00:00:00.000Z","MI_STYLE":"Symbol (66,0,6,\"Topography\",256,0)","NAME":"Trentham","SOURCE":"Australian Bureau of Statistics - 1995","STATE":"Victoria"}},
{"type":"Feature","geometry":{"type":"Point","coordinates":[146.535833,-38.20194400091789]},"properties":{"ACCURACY":"Medium","COUNTRY":"AUSTRALIA","LAST_UPDAT":"2007-10-19T00:00:00.000Z","MI_STYLE":"Symbol (66,0,6,\"Topography\",256,0)","NAME":"Traralgon","SOURCE":"Australian Bureau of Statistics - 1995","STATE":"Victoria"}},
{"type":"Feature","geometry":{"type":"Point","coordinates":[147.986667,-32.03555600085016]},"properties":{"ACCURACY":"Medium","COUNTRY":"AUSTRALIA","LAST_UPDAT":"2007-10-19T00:00:00.000Z","MI_STYLE":"Symbol (66,0,6,\"Topography\",256,0)","NAME":"Trangie","SOURCE":"Australian Bureau of Statistics - 1995","STATE":"New South Wales"}},
{"type":"Feature","geometry":{"type":"Point","coordinates":[146.15194400000001,-38.21472200091798]},"properties":{"ACCURACY":"Medium","COUNTRY":"AUSTRALIA","LAST_UPDAT":"2007-10-19T00:00:00.000Z","MI_STYLE":"Symbol (66,0,6,\"Topography\",256,0)","NAME":"Trafalgar","SOURCE":"Australian Bureau of Statistics - 1995","STATE":"Victoria"}},
{"type":"Feature","geometry":{"type":"Point","coordinates":[146.793889,-19.280833000590288]},"properties":{"ACCURACY":"Medium","COUNTRY":"AUSTRALIA","LAST_UPDAT":"2007-10-19T00:00:00.000Z","MI_STYLE":"Symbol (66,0,6,\"Topography\",256,0)","NAME":"Townsville","SOURCE":"Australian Bureau of Statistics - 1995","STATE":"Queensland"}},
{"type":"Feature","geometry":{"type":"Point","coordinates":[147.350278,-32.25250000085324]},"properties":{"ACCURACY":"Medium","COUNTRY":"AUSTRALIA","LAST_UPDAT":"2007-10-19T00:00:00.000Z","MI_STYLE":"Symbol (66,0,6,\"Topography\",256,0)","NAME":"Tottenham","SOURCE":"Australian Bureau of Statistics - 1995","STATE":"New South Wales"}},
{"type":"Feature","geometry":{"type":"Point","coordinates":[144.316111,-38.33333300091888]},"properties":{"ACCURACY":"Medium","COUNTRY":"AUSTRALIA","LAST_UPDAT":"2007-10-19T00:00:00.000Z","MI_STYLE":"Symbol (66,0,6,\"Topography\",256,0)","NAME":"Torquay","SOURCE":"Australian Bureau of Statistics - 1995","STATE":"Victoria"}},
{"type":"Feature","geometry":{"type":"Point","coordinates":[151.96,-27.560278000776023]},"properties":{"ACCURACY":"Medium","COUNTRY":"AUSTRALIA","LAST_UPDAT":"2007-10-19T00:00:00.000Z","MI_STYLE":"Symbol (66,0,6,\"Topography\",256,0)","NAME":"Toowoomba","SOURCE":"Australian Bureau of Statistics - 1995","STATE":"Queensland"}},
{"type":"Feature","geometry":{"type":"Point","coordinates":[144.951111,-36.256111000901]},"properties":{"ACCURACY":"Medium","COUNTRY":"AUSTRALIA","LAST_UPDAT":"2007-10-19T00:00:00.000Z","MI_STYLE":"Symbol (66,0,6,\"Topography\",256,0)","NAME":"Tongala","SOURCE":"Australian Bureau of Statistics - 1995","STATE":"Victoria"}},
{"type":"Feature","geometry":{"type":"Point","coordinates":[117.788889,-22.69583300067389]},"properties":{"ACCURACY":"Medium","COUNTRY":"AUSTRALIA","LAST_UPDAT":"2007-10-19T00:00:00.000Z","MI_STYLE":"Symbol (66,0,6,\"Topography\",256,0)","NAME":"Tom Price","SOURCE":"Australian Bureau of Statistics - 1995","STATE":"Western Australia"}},
{"type":"Feature","geometry":{"type":"Point","coordinates":[145.574444,-35.8155560008966]},"properties":{"ACCURACY":"Medium","COUNTRY":"AUSTRALIA","LAST_UPDAT":"2007-10-19T00:00:00.000Z","MI_STYLE":"Symbol (66,0,6,\"Topography\",256,0)","NAME":"Tocumwal","SOURCE":"Australian Bureau of Statistics - 1995","STATE":"New South Wales"}},
{"type":"Feature","geometry":{"type":"Point","coordinates":[146.983611,-36.05500000089902]},"properties":{"ACCURACY":"Medium","COUNTRY":"AUSTRALIA","LAST_UPDAT":"2007-10-19T00:00:00.000Z","MI_STYLE":"Symbol (66,0,6,\"Topography\",256,0)","NAME":"Thurgoona","SOURCE":"Australian Bureau of Statistics - 1995","STATE":"New South Wales"}},
{"type":"Feature","geometry":{"type":"Point","coordinates":[147.111111,-35.26027800089074]},"properties":{"ACCURACY":"Medium","COUNTRY":"AUSTRALIA","LAST_UPDAT":"2007-10-19T00:00:00.000Z","MI_STYLE":"Symbol (66,0,6,\"Topography\",256,0)","NAME":"The Rock","SOURCE":"Australian Bureau of Statistics - 1995","STATE":"New South Wales"}},
{"type":"Feature","geometry":{"type":"Point","coordinates":[151.472778,-33.38361100086848]},"properties":{"ACCURACY":"Medium","COUNTRY":"AUSTRALIA","LAST_UPDAT":"2007-10-19T00:00:00.000Z","MI_STYLE":"Symbol (66,0,6,\"Topography\",256,0)","NAME":"The Entrance","SOURCE":"Australian Bureau of Statistics - 1995","STATE":"New South Wales"}},
{"type":"Feature","geometry":{"type":"Point","coordinates":[142.913611,-38.24138900091819]},"properties":{"ACCURACY":"Medium","COUNTRY":"AUSTRALIA","LAST_UPDAT":"2007-10-19T00:00:00.000Z","MI_STYLE":"Symbol (66,0,6,\"Topography\",256,0)","NAME":"Terang","SOURCE":"Australian Bureau of Statistics - 1995","STATE":"Victoria"}},
{"type":"Feature","geometry":{"type":"Point","coordinates":[147.531111,-34.446667000881554]},"properties":{"ACCURACY":"Medium","COUNTRY":"AUSTRALIA","LAST_UPDAT":"2007-10-19T00:00:00.000Z","MI_STYLE":"Symbol (66,0,6,\"Topography\",256,0)","NAME":"Temora","SOURCE":"Australian Bureau of Statistics - 1995","STATE":"New South Wales"}},
{"type":"Feature","geometry":{"type":"Point","coordinates":[145.22722199999998,-36.44694400090284]},"properties":{"ACCURACY":"Medium","COUNTRY":"AUSTRALIA","LAST_UPDAT":"2007-10-19T00:00:00.000Z","MI_STYLE":"Symbol (66,0,6,\"Topography\",256,0)","NAME":"Tatura","SOURCE":"Australian Bureau of Statistics - 1995","STATE":"Victoria"}},
{"type":"Feature","geometry":{"type":"Point","coordinates":[149.981944,-36.72833300090549]},"properties":{"ACCURACY":"Medium","COUNTRY":"AUSTRALIA","LAST_UPDAT":"2007-10-19T00:00:00.000Z","MI_STYLE":"Symbol (66,0,6,\"Topography\",256,0)","NAME":"Tathra","SOURCE":"Australian Bureau of Statistics - 1995","STATE":"New South Wales"}},
{"type":"Feature","geometry":{"type":"Point","coordinates":[142.093056,-37.76694400091448]},"properties":{"ACCURACY":"Medium","COUNTRY":"AUSTRALIA","LAST_UPDAT":"2007-10-19T00:00:00.000Z","MI_STYLE":"Symbol (66,0,6,\"Topography\",256,0)","NAME":"Tarrington","SOURCE":"Australian Bureau of Statistics - 1995","STATE":"Victoria"}},
{"type":"Feature","geometry":{"type":"Point","coordinates":[147.029722,-36.25777800090102]},"properties":{"ACCURACY":"Medium","COUNTRY":"AUSTRALIA","LAST_UPDAT":"2007-10-19T00:00:00.000Z","MI_STYLE":"Symbol (66,0,6,\"Topography\",256,0)","NAME":"Tangambalanga","SOURCE":"Australian Bureau of Statistics - 1995","STATE":"Victoria"}},
{"type":"Feature","geometry":{"type":"Point","coordinates":[147.186667,-36.21722200090063]},"properties":{"ACCURACY":"Medium","COUNTRY":"AUSTRALIA","LAST_UPDAT":"2007-10-19T00:00:00.000Z","MI_STYLE":"Symbol (66,0,6,\"Topography\",256,0)","NAME":"Tallangatta","SOURCE":"Australian Bureau of Statistics - 1995","STATE":"Victoria"}},
{"type":"Feature","geometry":{"type":"Point","coordinates":[143.547222,-35.34333300089164]},"properties":{"ACCURACY":"Medium","COUNTRY":"AUSTRALIA","LAST_UPDAT":"2007-10-19T00:00:00.000Z","MI_STYLE":"Symbol (66,0,6,\"Topography\",256,0)","NAME":"Swan Hill","SOURCE":"Australian Bureau of Statistics - 1995","STATE":"Victoria"}},
{"type":"Feature","geometry":{"type":"Point","coordinates":[144.717222,-37.57944400091294]},"properties":{"ACCURACY":"Medium","COUNTRY":"AUSTRALIA","LAST_UPDAT":"2007-10-19T00:00:00.000Z","MI_STYLE":"Symbol (66,0,6,\"Topography\",256,0)","NAME":"Sunbury","SOURCE":"Australian Bureau of Statistics - 1995","STATE":"Victoria"}},
{"type":"Feature","geometry":{"type":"Point","coordinates":[145.320278,-42.15777800093907]},"properties":{"ACCURACY":"Medium","COUNTRY":"AUSTRALIA","LAST_UPDAT":"2007-10-19T00:00:00.000Z","MI_STYLE":"Symbol (66,0,6,\"Topography\",256,0)","NAME":"Strahan","SOURCE":"Australian Bureau of Statistics - 1995","STATE":"Tasmania"}},
{"type":"Feature","geometry":{"type":"Point","coordinates":[142.771667,-37.064167000908526]},"properties":{"ACCURACY":"Medium","COUNTRY":"AUSTRALIA","LAST_UPDAT":"2007-10-19T00:00:00.000Z","MI_STYLE":"Symbol (66,0,6,\"Topography\",256,0)","NAME":"Stawell","SOURCE":"Australian Bureau of Statistics - 1995","STATE":"Victoria"}},
{"type":"Feature","geometry":{"type":"Point","coordinates":[143.255,-36.61944400090448]},"properties":{"ACCURACY":"Medium","COUNTRY":"AUSTRALIA","LAST_UPDAT":"2007-10-19T00:00:00.000Z","MI_STYLE":"Symbol (66,0,6,\"Topography\",256,0)","NAME":"St Arnaud","SOURCE":"Australian Bureau of Statistics - 1995","STATE":"Victoria"}},
{"type":"Feature","geometry":{"type":"Point","coordinates":[118.601389,-20.40277800061875]},"properties":{"ACCURACY":"Medium","COUNTRY":"AUSTRALIA","LAST_UPDAT":"2007-10-19T00:00:00.000Z","MI_STYLE":"Symbol (66,0,6,\"Topography\",256,0)","NAME":"South Hedland","SOURCE":"Australian Bureau of Statistics - 1995","STATE":"Western Australia"}},
{"type":"Feature","geometry":{"type":"Point","coordinates":[147.555833,-42.78888900094079]},"properties":{"ACCURACY":"Medium","COUNTRY":"AUSTRALIA","LAST_UPDAT":"2007-10-19T00:00:00.000Z","MI_STYLE":"Symbol (66,0,6,\"Topography\",256,0)","NAME":"Sorell","SOURCE":"Australian Bureau of Statistics - 1995","STATE":"Tasmania"}},
{"type":"Feature","geometry":{"type":"Point","coordinates":[145.820278,-41.04944400093493]},"properties":{"ACCURACY":"Medium","COUNTRY":"AUSTRALIA","LAST_UPDAT":"2007-10-19T00:00:00.000Z","MI_STYLE":"Symbol (66,0,6,\"Topography\",256,0)","NAME":"Somerset","SOURCE":"Australian Bureau of Statistics - 1995","STATE":"Tasmania"}},
{"type":"Feature","geometry":{"type":"Point","coordinates":[145.116944,-40.846111000934016]},"properties":{"ACCURACY":"Medium","COUNTRY":"AUSTRALIA","LAST_UPDAT":"2007-10-19T00:00:00.000Z","MI_STYLE":"Symbol (66,0,6,\"Topography\",256,0)","NAME":"Smithton","SOURCE":"Australian Bureau of Statistics - 1995","STATE":"Tasmania"}},
{"type":"Feature","geometry":{"type":"Point","coordinates":[143.359722,-37.691111000913864]},"properties":{"ACCURACY":"Medium","COUNTRY":"AUSTRALIA","LAST_UPDAT":"2007-10-19T00:00:00.000Z","MI_STYLE":"Symbol (66,0,6,\"Topography\",256,0)","NAME":"Skipton","SOURCE":"Australian Bureau of Statistics - 1995","STATE":"Victoria"}},
{"type":"Feature","geometry":{"type":"Point","coordinates":[151.176389,-32.57500000085772]},"properties":{"ACCURACY":"Medium","COUNTRY":"AUSTRALIA","LAST_UPDAT":"2007-10-19T00:00:00.000Z","MI_STYLE":"Symbol (66,0,6,\"Topography\",256,0)","NAME":"Singleton","SOURCE":"Australian Bureau of Statistics - 1995","STATE":"New South Wales"}},
{"type":"Feature","geometry":{"type":"Point","coordinates":[115.763333,-32.459722000856125]},"properties":{"ACCURACY":"Medium","COUNTRY":"AUSTRALIA","LAST_UPDAT":"2007-10-19T00:00:00.000Z","MI_STYLE":"Symbol (66,0,6,\"Topography\",256,0)","NAME":"Singleton","SOURCE":"Australian Bureau of Statistics - 1995","STATE":"Western Australia"}},
{"type":"Feature","geometry":{"type":"Point","coordinates":[152.528611,-32.188889000852335]},"properties":{"ACCURACY":"Medium","COUNTRY":"AUSTRALIA","LAST_UPDAT":"2010-03-19T00:00:00.000Z","MI_STYLE":"Symbol (66,0,6,\"Topography\",256,0)","NAME":"Forster-Tuncurry","SOURCE":"Australian Bureau of Statistics - 1995","STATE":"New South Wales"}},
{"type":"Feature","geometry":{"type":"Point","coordinates":[147.543056,-35.11305600088913]},"properties":{"ACCURACY":"Medium","COUNTRY":"AUSTRALIA","LAST_UPDAT":"2007-10-19T00:00:00.000Z","MI_STYLE":"Symbol (66,0,6,\"Topography\",256,0)","NAME":"Forest Hill","SOURCE":"Australian Bureau of Statistics - 1995","STATE":"New South Wales"}},
{"type":"Feature","geometry":{"type":"Point","coordinates":[148.005833,-33.388611000868536]},"properties":{"ACCURACY":"Medium","COUNTRY":"AUSTRALIA","LAST_UPDAT":"2007-10-19T00:00:00.000Z","MI_STYLE":"Symbol (66,0,6,\"Topography\",256,0)","NAME":"Forbes","SOURCE":"Australian Bureau of Statistics - 1995","STATE":"New South Wales"}},
{"type":"Feature","geometry":{"type":"Point","coordinates":[145.573889,-35.64777800089486]},"properties":{"ACCURACY":"Medium","COUNTRY":"AUSTRALIA","LAST_UPDAT":"2007-10-19T00:00:00.000Z","MI_STYLE":"Symbol (66,0,6,\"Topography\",256,0)","NAME":"Finley","SOURCE":"Australian Bureau of Statistics - 1995","STATE":"New South Wales"}},
{"type":"Feature","geometry":{"type":"Point","coordinates":[115.651389,-32.57972200085778]},"properties":{"ACCURACY":"Medium","COUNTRY":"AUSTRALIA","LAST_UPDAT":"2007-10-19T00:00:00.000Z","MI_STYLE":"Symbol (66,0,6,\"Topography\",256,0)","NAME":"Falcon","SOURCE":"Australian Bureau of Statistics - 1995","STATE":"Western Australia"}},
{"type":"Feature","geometry":{"type":"Point","coordinates":[114.120833,-21.935556000656074]},"properties":{"ACCURACY":"Medium","COUNTRY":"AUSTRALIA","LAST_UPDAT":"2007-10-19T00:00:00.000Z","MI_STYLE":"Symbol (66,0,6,\"Topography\",256,0)","NAME":"Exmouth","SOURCE":"Australian Bureau of Statistics - 1995","STATE":"Western Australia"}},
{"type":"Feature","geometry":{"type":"Point","coordinates":[145.56638900000002,-36.75527800090573]},"properties":{"ACCURACY":"Medium","COUNTRY":"AUSTRALIA","LAST_UPDAT":"2007-10-19T00:00:00.000Z","MI_STYLE":"Symbol (66,0,6,\"Topography\",256,0)","NAME":"Euroa","SOURCE":"Australian Bureau of Statistics - 1995","STATE":"Victoria"}},
{"type":"Feature","geometry":{"type":"Point","coordinates":[148.375556,-33.43305600086911]},"properties":{"ACCURACY":"Medium","COUNTRY":"AUSTRALIA","LAST_UPDAT":"2007-10-19T00:00:00.000Z","MI_STYLE":"Symbol (66,0,6,\"Topography\",256,0)","NAME":"Eugowra","SOURCE":"Australian Bureau of Statistics - 1995","STATE":"New South Wales"}},
{"type":"Feature","geometry":{"type":"Point","coordinates":[145.438056,-37.93333300091581]},"properties":{"ACCURACY":"Medium","COUNTRY":"AUSTRALIA","LAST_UPDAT":"2007-10-19T00:00:00.000Z","MI_STYLE":"Symbol (66,0,6,\"Topography\",256,0)","NAME":"Emerald","SOURCE":"Australian Bureau of Statistics - 1995","STATE":"Victoria"}},
{"type":"Feature","geometry":{"type":"Point","coordinates":[148.158056,-23.52305600069273]},"properties":{"ACCURACY":"Medium","COUNTRY":"AUSTRALIA","LAST_UPDAT":"2007-10-19T00:00:00.000Z","MI_STYLE":"Symbol (66,0,6,\"Topography\",256,0)","NAME":"Emerald","SOURCE":"Australian Bureau of Statistics - 1995","STATE":"Queensland"}},
{"type":"Feature","geometry":{"type":"Point","coordinates":[138.681389,-34.711667000884624]},"properties":{"ACCURACY":"Medium","COUNTRY":"AUSTRALIA","LAST_UPDAT":"2007-10-19T00:00:00.000Z","MI_STYLE":"Symbol (66,0,6,\"Topography\",256,0)","NAME":"Elizabeth","SOURCE":"Australian Bureau of Statistics - 1995","STATE":"South Australia"}},
{"type":"Feature","geometry":{"type":"Point","coordinates":[141.285833,-37.03611100090828]},"properties":{"ACCURACY":"Medium","COUNTRY":"AUSTRALIA","LAST_UPDAT":"2007-10-19T00:00:00.000Z","MI_STYLE":"Symbol (66,0,6,\"Topography\",256,0)","NAME":"Edenhope","SOURCE":"Australian Bureau of Statistics - 1995","STATE":"Victoria"}},
{"type":"Feature","geometry":{"type":"Point","coordinates":[149.90194400000001,-37.067778000908554]},"properties":{"ACCURACY":"Medium","COUNTRY":"AUSTRALIA","LAST_UPDAT":"2007-10-19T00:00:00.000Z","MI_STYLE":"Symbol (66,0,6,\"Topography\",256,0)","NAME":"Eden","SOURCE":"Australian Bureau of Statistics - 1995","STATE":"New South Wales"}},
{"type":"Feature","geometry":{"type":"Point","coordinates":[144.74944399999998,-36.13638900089983]},"properties":{"ACCURACY":"Medium","COUNTRY":"AUSTRALIA","LAST_UPDAT":"2007-10-19T00:00:00.000Z","MI_STYLE":"Symbol (66,0,6,\"Topography\",256,0)","NAME":"Echuca","SOURCE":"Australian Bureau of Statistics - 1995","STATE":"Victoria"}},
{"type":"Feature","geometry":{"type":"Point","coordinates":[115.707222,-33.315556000867595]},"properties":{"ACCURACY":"Medium","COUNTRY":"AUSTRALIA","LAST_UPDAT":"2007-10-19T00:00:00.000Z","MI_STYLE":"Symbol (66,0,6,\"Topography\",256,0)","NAME":"Eaton","SOURCE":"Australian Bureau of Statistics - 1995","STATE":"Western Australia"}},
{"type":"Feature","geometry":{"type":"Point","coordinates":[116.06222199999999,-32.717500000859665]},"properties":{"ACCURACY":"Medium","COUNTRY":"AUSTRALIA","LAST_UPDAT":"2007-10-19T00:00:00.000Z","MI_STYLE":"Symbol (66,0,6,\"Topography\",256,0)","NAME":"Dwellingup","SOURCE":"Australian Bureau of Statistics - 1995","STATE":"Western Australia"}},
{"type":"Feature","geometry":{"type":"Point","coordinates":[143.730278,-36.861389000906705]},"properties":{"ACCURACY":"Medium","COUNTRY":"AUSTRALIA","LAST_UPDAT":"2007-10-19T00:00:00.000Z","MI_STYLE":"Symbol (66,0,6,\"Topography\",256,0)","NAME":"Dunolly","SOURCE":"Australian Bureau of Statistics - 1995","STATE":"Victoria"}},
{"type":"Feature","geometry":{"type":"Point","coordinates":[142.341389,-37.65166700091354]},